ID,BuildingTypeName,PropertyTypeEPA,BuildingName,Address,City,State,Zip,Neighborhood,Latitude,Longitude,YearBuilt,GrossFloorAreaQuantity,NumBuildings,NumFloors,NumUnits,ES_Score,SiteEUI,SourceEUI,TotalGHGEmissionsReg,GHGEmissionsIntensity
1,NonResidential,Hotel,MAYFLOWER PARK HOTEL,405 OLIVE WAY,SEATTLE,WA,98101,DOWNTOWN,47.61219025,-122.33799744,1/1/1927,88434,1,12,0,65,78.9000015259,173.5,529.799987793,0.0059909083
2,NonResidential,Hotel,PARAMOUNT HOTEL,724 PINE ST,SEATTLE,WA,98101,DOWNTOWN,47.61310583,-122.33335756,1/1/1996,88502,1,11,0,51,94.4000015259,191.3000030518,583.700012207,0.0065953313
3,NonResidential,Hotel,WESTIN HOTEL,1900 5TH AVE,SEATTLE,WA,98101,DOWNTOWN,47.61334897,-122.33769944,1/1/1969,757243,1,41,0,18,96.5999984741,242.6999969482,5929.3999023438,0.0078302472
5,NonResidential,Hotel,HOTEL MAX,620 STEWART ST,SEATTLE,WA,98101,DOWNTOWN,47.61421585,-122.33660889,1/1/1926,61320,1,10,0,1,460.3999938965,636.299987793,1910.3000488281,0.0311529688
8,NonResidential,Hotel,WARWICK SEATTLE HOTEL,401 LENORA ST,SEATTLE,WA,98121,DOWNTOWN,47.6137544,-122.3409238,1/1/1980,123445,1,18,0,67,120.0999984741,228.8000030518,1005.0999755859,0.0081420874
9,Nonresidential COS,Police Station,WEST PRECINCT (SEATTLE POLICE),810 VIRGINIA ST,SEATTLE,WA,98101,DOWNTOWN,47.6164389,-122.33676431,1/1/1999,88830,1,2,0,,135.6999969482,313.5,900.799987793,0.0101407181
10,NonResidential,Hotel,CAMLIN WORLDMARK HOTEL,1619 9TH AVE,SEATTLE,WA,98101,DOWNTOWN,47.6141141,-122.33274086,1/1/1926,81352,1,11,0,25,76.9000015259,149.5,428.200012207,0.0052635462
11,NonResidential,Other - Entertainment/Public Assembly,PARAMOUNT THEATER,901 PINE ST,SEATTLE,WA,98101,DOWNTOWN,47.61290234,-122.33130949,1/1/1926,102761,1,8,0,,62.5,152.1999969482,515.200012207,0.0050135753
12,NonResidential,Hotel,COURTYARD BY MARRIOTT - ALASKA BLDG SEATTLE,612 2ND AVE,SEATTLE,WA,98104,DOWNTOWN,47.60258934,-122.33255325,1/1/1904,163984,1,15,0,46,77,174.6000061035,934.700012207,0.0056999464
13,Multifamily MR (5-9),Multifamily Housing,LYON BUILDING,607 3RD AVE,SEATTLE,WA,98104,DOWNTOWN,47.60278416,-122.33214887,1/1/1910,56132,1,6,64,2,81.6999969482,178.1000061035,348.299987793,0.0062050165
15,NonResidential,Hotel,HOTEL MONACO,1101 4TH AVE,SEATTLE,WA,98101,DOWNTOWN,47.60712147,-122.33431932,1/1/1969,145660,1,11,0,48,101.0999984741,200.8000030518,1057.1999511719,0.0072579977
16,NonResidential,Hotel,W SEATTLE HOTEL,1112 4TH AVE,SEATTLE,WA,98101,DOWNTOWN,47.60718204,-122.33347215,1/1/1998,336640,1,25,0,32,82.3000030518,207.1999969482,2227.5,0.0066168607
17,NonResidential,Hotel,EXECUTIVE PACIFIC PLAZA,400 SPRING ST,SEATTLE,WA,98104,DOWNTOWN,47.60709939,-122.33310536,1/1/1928,65009,1,9,0,39,104.6999969482,166.5,445.8999938965,0.0068590502
18,NonResidential,Hotel,CROWNE PLAZA,1113 6TH AVE,SEATTLE,WA,98101,DOWNTOWN,47.60809326,-122.33211517,1/1/1980,295511,1,33,0,56,77.1999969482,183.1999969482,1779.5999755859,0.0060221108
19,NonResidential,Hotel,HOTEL VINTAGE PARK,1100 5TH AVE,SEATTLE,WA,98101,DOWNTOWN,47.60761642,-122.3323288,1/1/1922,64490,1,11,0,14,166.1000061035,317.3999938965,774,0.0120018608
21,Nonresidential COS,Library,SEATTLE CENTRAL LIBRARY,1000 4TH AVE,SEATTLE,WA,98104,DOWNTOWN,47.60667501,-122.33226425,1/1/2004,365987,1,11,0,,46,140.8000030518,1483.0999755859,0.0040523297
22,NonResidential,Fitness Center/Health Club/Gym,DOWNTOWN SEATTLE YMCA,909 4TH AVE,SEATTLE,WA,98104,DOWNTOWN,47.60544586,-122.33280182,1/1/1930,130000,1,6,0,,79.5,173.6999969482,797.200012207,0.0061323078
23,NonResidential,Hotel,RENAISSANCE MADISON HOTEL,515 MADISON ST,SEATTLE,WA,98104,DOWNTOWN,47.60656003,-122.33063632,1/1/1983,348329,1,28,0,30,95.5,231.8999938965,2553.3999023438,0.0073304258
24,NonResidential,Mixed Use Property,RAINIER CLUB (HISTORICAL LANDMARK),810 4TH AVE,SEATTLE,WA,98104,DOWNTOWN,47.60552597,-122.33163032,1/1/1907,57452,1,5,0,,130.1999969482,278.700012207,556,0.0096776439
25,NonResidential,Hotel,DOUBLE TREE ARCTIC CLUB HOTEL - SEATTLE,700 3RD AVE,SEATTLE,WA,98104,DOWNTOWN,47.60397899,-122.3320576,1/1/1916,104352,1,10,0,83,75.1999969482,119.5,523.5,0.0050166743
26,NonResidential,Courthouse,KING COUNTY COURTHOUSE,516 3RD AVE,SEATTLE,WA,98104,DOWNTOWN,47.60264587,-122.33052826,1/1/1916,537150,1,10,0,67,99.3000030518,208.5,3792.8000488281,0.00706097
27,NonResidential,Other,KING COUNTY CORRECTIONAL FACILITY,500 5TH AVE,SEATTLE,WA,98104,DOWNTOWN,47.60355377,-122.32830048,1/1/1985,385274,1,19,0,,132.1000061035,245.5,3408.8999023438,0.0088479885
28,SPS-District K-12,K-12 School,GRAHAM HILL ELEMENTARY SCHOOL (SPS-DISTRICT),5101 S GRAHAM ST,SEATTLE,WA,98118,SOUTHEAST,47.54570136,-122.2685843,1/1/1961,56228,1,2,0,96,25.7000007629,59.7000007629,111.6999969482,0.0019865547
29,NonResidential,Hotel,WATERTOWN HOTEL,4242 ROOSEVELT WAY NE,SEATTLE,WA,98105,NORTHEAST,47.65953281,-122.3173925,1/1/2001,58006,1,6,0,85,66.9000015259,151.5,287,0.004947764
30,NonResidential,College/University,Cornish (Main Campus Center),1000 LENORA ST,SEATTLE,WA,98121,DOWNTOWN,47.61839333,-122.3369292,1/1/1928,125000,1,7,0,,78.3000030518,158.8999938965,684.4000244141,0.0054752002
31,NonResidential,Automobile Dealership,SEATTLE HONDA,1017 OLIVE WAY,SEATTLE,WA,98101,DOWNTOWN,47.61490582,-122.33040102,1/1/1930,67224,1,2,0,,20.7000007629,64.9000015259,123.5,0.0018371415
32,NonResidential,Hotel,HOMEWOOD SUITES -SEATTLE - Hilton,1011 PIKE ST,SEATTLE,WA,98101,EAST,47.61300278,-122.32923126,1/1/1991,117176,1,8,0,,44,55.7000007629,293.1000061035,0.0025013655
33,NonResidential,Hotel,SPRINGHILL SUITES SEATTLE DOWNTOWN,1800 YALE AVE,SEATTLE,WA,98101,DOWNTOWN,47.61806905,-122.33005445,1/1/2001,128909,1,10,0,20,85.5,183.3000030518,792.299987793,0.0061461961
34,SPS-District K-12,K-12 School,MEANY MIDDLE SCHOOL (SPS-DISTRICT),300 20TH AVE E,SEATTLE,WA,98112,SHARED: CENTRAL & EAST,47.62309371,-122.3053887,1/1/1963,126351,1,1,0,,,,,
35,NonResidential,Hotel,Hotel Five,2200 5TH AVE,SEATTLE,WA,98121,DOWNTOWN,47.61587049,-122.34197968,1/1/1978,68410,1,5,0,82,63.5,136.1999969482,312.200012207,0.0045636605
36,SPS-District K-12,K-12 School,JANE ADAMS JUNIOR HIGH (SPS-DISTRICT),11031 34TH AVE NE,SEATTLE,WA,98125,NORTH,47.71011498,-122.29379175,1/1/1950,160645,1,2,0,82,37.5999984741,61.2999992371,389.700012207,0.0024258459
37,SPS-District K-12,K-12 School,JOHN HAY ELEMENTARY SCHOOL (SPS-DISTRICT),201 GARFIELD ST,SEATTLE,WA,98109,MAGNOLIA / QUEEN ANNE,47.63303191,-122.35245717,1/1/1989,51582,1,2,0,95,26,81.5,127.4000015259,0.0024698539
38,NonResidential,Office,HOUSE OF GOOD SHEPHERD,4649 SUNNYSIDE AVE N,SEATTLE,WA,98103,LAKE UNION,47.66391557,-122.33172174,1/1/1906,67428,1,3,0,,59.2000007629,104.0999984741,260.3999938965,0.003861897
40,NonResidential,Hotel,SILVER CLOUD INN UNIVERSITY,5036 25TH AVE NE,SEATTLE,WA,98105,NORTHEAST,47.66585193,-122.29889419,1/1/1994,81871,1,4,0,20,90.5999984741,178.5,511.200012207,0.0062439693
41,NonResidential,Supermarket/Grocery Store,QFC / SHURGARD MINI STORAGE / LIQUOR STORE,2746 NE 45TH ST,SEATTLE,WA,98105,NORTHEAST,47.66270326,-122.29612323,1/1/1955,73487,1,2,0,77,192.1999969482,467.299987793,1084.6999511719,0.0147604332
46,NonResidential,Distribution Center,SEATTLE WAREHOUSE OFFICE BUILDING,3301 S NORFOLK ST,SEATTLE,WA,98118,GREATER DUWAMISH,47.5106034,-122.29027588,1/1/1961,715387,7,2,0,1,66.9000015259,210,4256.3999023438,0.0059497865
50,SPS-District K-12,K-12 School,LAWTON ELEMENTARY SCHOOL (SPS-DISTRICT),4017 26TH AVE W,SEATTLE,WA,98199,MAGNOLIA / QUEEN ANNE,47.65726207,-122.39065097,1/1/1989,54986,1,2,0,98,28.8999996185,75.1999969482,126.5999984741,0.0023024042
51,SPS-District K-12,K-12 School,NATHAN ECKSTEIN MIDDLE (SPS-DISTRICT),3003 NE 75TH ST,SEATTLE,WA,98115,NORTHEAST,47.68245037,-122.2939354,1/1/1950,175565,1,2,0,87,35.2000007629,55.2999992371,399.6000061035,0.0022760801
52,NonResidential,Office,STIMSON INDUSTRIAL PARK,5305 SHILSHOLE AVE NW,SEATTLE,WA,98107,BALLARD,47.66580963,-122.3860321,1/1/1961,94900,1,2,0,57,63.7000007629,161.3000030518,474.799987793,0.0050031611
53,NonResidential,Office,EL CENTRO DE LA RAZA,2524 16TH AVE S,SEATTLE,WA,98144,GREATER DUWAMISH,47.58002948,-122.31181286,1/1/1900,58878,1,2,0,93,36.2999992371,81.5999984741,157.5,0.0026750229
54,NonResidential,K-12 School,BLANCHET HIGH SCHOOL,8200 WALLINGFORD AVE N,SEATTLE,WA,98103,NORTHWEST,47.68894837,-122.33616192,1/1/1954,175015,1,3,0,95,40.5,74.5999984741,472.6000061035,0.00270034
55,NonResidential,Self-Storage Facility,MINI STG (OLD SKYWAY LUGGAGE CO),11 VINE ST,SEATTLE,WA,98121,DOWNTOWN,47.61311034,-122.35096928,1/1/1911,70495,1,3,0,,30.5,79.5999984741,171.6999969482,0.0024356337
56,NonResidential,Hotel,HILTON SEATTLE,1301 6TH AVE,SEATTLE,WA,98101,DOWNTOWN,47.60950466,-122.3334029,1/1/1969,348630,1,24,0,68,44.9000015259,121,178.1000061035,0.0005108568
57,NonResidential,Office,5th and Pine,1513 5TH AVE,SEATTLE,WA,98101,DOWNTOWN,47.61103976,-122.3363484,1/1/1973,169531,1,5,0,79,54.2999992371,170.6999969482,819.700012207,0.004835104
58,NonResidential,Retail Store,CENTURY SQUARE RETAIL,1525 4TH AVE,SEATTLE,WA,98101,DOWNTOWN,47.61076355,-122.337677,1/1/1920,57428,1,2,0,,,,,
59,NonResidential,Office,GIBRALTAR TOWER,1518 3RD AVE,SEATTLE,WA,98101,DOWNTOWN,47.610466,-122.33795929,1/1/1910,39940,1,8,0,,98,307.8999938965,348.3999938965,0.0087230845
60,NonResidential,Mixed Use Property,MANN BUILDING/WILD GINGER/TRIPLE DOOR,1401 3RD AVE,SEATTLE,WA,98101,DOWNTOWN,47.60883331,-122.3374176,1/1/1926,52459,1,2,0,,297.1000061035,522.799987793,1017.5,0.0193960998
61,Multifamily LR (1-4),Multifamily Housing,GATEWOOD APTS,107 PINE ST,SEATTLE,WA,98101,DOWNTOWN,47.60973588,-122.3403842,1/1/1900,48383,1,4,96,75,61,129.6000061035,221,0.0045677201
62,NonResidential,Hotel,ROOSEVELT HOTEL,1531 7TH AVE,SEATTLE,WA,98101,DOWNTOWN,47.61229324,-122.33441925,1/1/1930,88591,1,20,0,46,69.6999969482,201.1000061035,522.4000244141,0.0058967618
63,NonResidential,Hotel,SHERATON HOTEL,1400 6TH AVE,SEATTLE,WA,98101,DOWNTOWN,47.61101988,-122.3335344,1/1/1982,994212,1,34,0,60,85.9000015259,187.3000030518,6364,0.0064010493
65,NonResidential,Hotel,INN AT THE MARKET,86 PINE ST,SEATTLE,WA,98101,DOWNTOWN,47.60989093,-122.3414255,1/1/1985,57420,1,7,0,99,87.8000030518,203.3000030518,377.200012207,0.0065691399
66,NonResidential,Mixed Use Property,MOORE HOTEL & THEATRE,1926 2ND AVE,SEATTLE,WA,98101,DOWNTOWN,47.61155254,-122.3408486,1/1/1908,122810,1,7,0,,41.4000015259,65.6999969482,317,0.002581223
67,NonResidential,Hotel,QUALITY INN & SUITES - SEATTLE,618 JOHN ST,SEATTLE,WA,98109,LAKE UNION,47.62037281,-122.3441465,1/1/1959,70627,1,5,0,86,70.5999984741,166.6000061035,377,0.0053379019
68,NonResidential,Hotel,HOLIDAY INN - SEATTLE,211 DEXTER AVE N,SEATTLE,WA,98109,LAKE UNION,47.6203118,-122.3428044,1/1/2000,150453,1,7,0,83,60.7999992371,131.6999969482,485.700012207,0.0032282508
69,NonResidential,Hotel,HOLIDAY INN EXPRESS - DOWNTOWN SEATTLE,226 AURORA AVE N,SEATTLE,WA,98109,LAKE UNION,47.62021696,-122.3432115,1/1/1997,116300,1,6,0,84,68,147.8000030518,435.5,0.003744626
70,NonResidential,Hotel,HOMEWOOD SUITES HOTEL - SEATTLE,206 WESTERN AVE W,SEATTLE,WA,98119,MAGNOLIA / QUEEN ANNE,47.62050588,-122.3596901,1/1/1998,155602,1,6,0,81,44.4000015259,108,531,0.0034125525
73,NonResidential,K-12 School,SEATTLE HEBREW ACADAMY,1617 INTERLAKEN DR E,SEATTLE,WA,98112,EAST,47.63445532,-122.3080163,1/1/1911,56072,1,3,0,77,55.4000015259,78.6999969482,184.8000030518,0.0032957626
77,NonResidential,Hotel,COMFORT SUITES SEATTLE CENTER,601 ROY ST,SEATTLE,WA,98109,MAGNOLIA / QUEEN ANNE,47.62498256,-122.3445605,1/1/1999,78051,1,4,0,94,67.5999984741,135.3000030518,366.299987793,0.0046930851
82,NonResidential,Office,DEPT OF SOCIAL & HEALTH SERVICES,1700 E CHERRY ST,SEATTLE,WA,98122,CENTRAL,47.60841187,-122.3095441,1/1/1962,54984,1,2,0,65,63.7000007629,149.8000030518,264.3999938965,0.0048086715
84,NonResidential,Senior Care Community,PROVIDENCE MT ST VINCENT,4831 35TH AVE SW,SEATTLE,WA,98126,SOUTHWEST,47.55837362,-122.378518,1/1/1922,296313,1,5,215,50,153.5,246.3999938965,2849.5,0.0096165204
85,NonResidential,Senior Care Community,FOSS HOME AND VILLAGE,13023 GREENWOOD AVE N,SEATTLE,WA,98133,NORTHWEST,47.72389349,-122.3562998,1/1/1970,93397,1,2,0,1,175.3000030518,313.799987793,1077.4000244141,0.0115357027
86,NonResidential,Hotel,SCCA - ALLIANCE HOUSE,207 PONTIUS AVE N,SEATTLE,WA,98109,LAKE UNION,47.61990903,-122.3320457,1/1/2008,63371,1,6,0,68,62.7999992371,164.1000061035,318,0.0050180682
87,SPS-District K-12,K-12 School,ARBOR HEIGHTS ELEMENTARY SCHOOL (SPS-DISTRICT),3701 SW 104TH ST,SEATTLE,WA,98146,SOUTHWEST,47.50935392,-122.3782222,1/1/1950,53352,1,2,0,100,0,0,0,0
89,NonResidential,Medical Office,"POLYCLINIC MEDICAL OFFICE, NORTH BUILDING",1200 HARVARD AVE,SEATTLE,WA,98122,EAST,47.61249662,-122.3213373,1/1/1965,179014,0,3,0,48,105.4000015259,221.6000061035,1342.8000488281,0.0075010896
95,NonResidential,Hotel,SORRENTO HOTEL,900 MADISON ST,SEATTLE,WA,98104,EAST,47.60895788,-122.3268374,1/1/1908,76631,1,7,0,24,94.4000015259,175,483.8999938965,0.0063146767
96,NonResidential,Mixed Use Property,PUGET SOUND BLOOD CENTER,921 TERRY AVE,SEATTLE,WA,98104,EAST,47.60831445,-122.3266192,1/1/1983,75648,1,6,0,,201.5,509.299987793,1247.1999511719,0.016486886
98,NonResidential,Retail Store,FIRESTONE TIRE AND RUBBER CO,400 WESTLAKE AVE N,SEATTLE,WA,98109,LAKE UNION,47.622375,-122.33805,1/1/1929,72072,1,2,0,95,14.8999996185,26.6000003815,70.5,0.0009781885
100,NonResidential,Office,CITY PLACE III,551 BOREN AVE N,SEATTLE,WA,98109,LAKE UNION,47.62428336,-122.33589247,1/1/2010,287367,1,5,0,96,46.2999992371,139.3000030518,1153.5,0.0040140308
102,NonResidential,Hotel,MARRIOTT RESIDENCE INN,800 FAIRVIEW AVE N,SEATTLE,WA,98109,LAKE UNION,47.6263594,-122.333131,1/1/1990,235788,1,7,0,40,79.9000015259,178.1000061035,1381.5,0.0058590768
103,Nonresidential COS,Other,KEY ARENA - SEATTLE CENTER,305 HARRISON ST,SEATTLE,WA,98109,MAGNOLIA / QUEEN ANNE,47.62124083,-122.3534322,1/1/1962,368000,1,1,0,,79.6999969482,167.6999969482,,
104,Nonresidential COS,Other,BAGLEY WRIGHT THEATER - SEATTLE CENTER,305 HARRISON ST,SEATTLE,WA,98109,MAGNOLIA / QUEEN ANNE,47.62124083,-122.3534322,1/1/1962,91213,1,1,0,,78,201.1999969482,,
106,Nonresidential COS,Other,ARMORY - SEATTLE CENTER,305 HARRISON ST,SEATTLE,WA,98109,MAGNOLIA / QUEEN ANNE,47.62189039,-122.3502752,1/1/1938,278500,1,5,0,,97.5999984741,166.8000030518,,
107,NonResidential,Office,CITY PLACE IV,301 BOREN AVE N,SEATTLE,WA,98109,LAKE UNION,47.62099765,-122.33592466,1/1/2010,625004,1,12,0,89,66.8000030518,184.6000061035,3444.1000976563,0.0055105249
110,Nonresidential COS,Other,EXHIBITION HALL - SEATTLE CENTER,301 MERCER ST,SEATTLE,WA,98109,MAGNOLIA / QUEEN ANNE,47.62393635,-122.35193,1/1/1962,52000,1,2,0,,50.5999984741,102.4000015259,,
111,Nonresidential COS,Other,MERCER ARENA - SEATTLE CENTER,301 MERCER ST,SEATTLE,WA,98109,MAGNOLIA / QUEEN ANNE,47.62388082,-122.3499699,1/1/1928,108000,1,1,0,,8.6000003815,26.8999996185,82.3000030518,0.0007620371
112,Nonresidential COS,Other,MCCAW HALL - SEATTLE CENTER,225 MERCER ST,SEATTLE,WA,98109,MAGNOLIA / QUEEN ANNE,47.62388082,-122.3499699,1/1/1928,296000,1,2,0,,70.4000015259,174.1000061035,,
113,NonResidential,Office,KCTS 9,401 MERCER ST,SEATTLE,WA,98109,MAGNOLIA / QUEEN ANNE,47.623925,-122.3483417,1/1/1986,55632,0,2,0,,77.8000030518,244.3999938965,0,0
114,NonResidential,Office,BILL & MELINDA GATES FOUNDATION,500 5TH AVE N,SEATTLE,WA,98109,MAGNOLIA / QUEEN ANNE,47.62334946,-122.344706,1/1/2010,735584,1,6,0,93,49.9000015259,133.3000030518,2969.3999023438,0.0040367924
115,NonResidential,Office,SCRIPPS BUILDING - 221 FIRST AVENUE WEST,221 1ST AVE W,SEATTLE,WA,98119,MAGNOLIA / QUEEN ANNE,47.62038448,-122.3584269,1/1/1970,50952,1,4,0,73,64.1999969482,181.1999969482,273.1000061035,0.0053599467
116,NonResidential,Hotel,THE MEDITERRANEAN INN,425 QUEEN ANNE AVE N,SEATTLE,WA,98109,MAGNOLIA / QUEEN ANNE,47.62294488,-122.3571048,1/1/2002,59976,1,6,0,52,84.4000015259,186.8999938965,369.8999938965,0.0061674669
117,NonResidential,Hotel,UNIVERSITY INN,4140 ROOSEVELT WAY NE,SEATTLE,WA,98105,NORTHEAST,47.65774638,-122.3175345,1/1/1962,50017,1,4,0,51,111.4000015259,207.1000061035,373.200012207,0.0074614633
118,SPS-District K-12,K-12 School,NEW COOPER ELEMENTARY SCHOOL (SPS-DISTRICT),1901 SW GENESEE ST,SEATTLE,WA,98106,DELRIDGE NEIGHBORHOODS,47.56261299,-122.3579283,1/1/1999,74468,1,3,0,,,,,
119,NonResidential,K-12 School,ST JOSEPH K-8 SCHOOL,700 18TH AVE E,SEATTLE,WA,98112,EAST,47.6262348,-122.3081985,1/1/1923,67743,1,3,0,43,34,74.6999969482,167.6999969482,0.0024755325
120,NonResidential,K-12 School,HOLY NAMES ACADEMY,728 21ST AVE E,SEATTLE,WA,98112,EAST,47.62595722,-122.304164,1/1/1908,194104,1,6,0,100,30.2999992371,51.2000007629,377.200012207,0.0019432882
121,NonResidential,Office,THE 2100 BUILDING,2100 24TH AVE S,SEATTLE,WA,98144,SOUTHEAST,47.58406769,-122.3012707,1/1/2003,63681,1,3,0,71,69.6999969482,218.8999938965,394.8999938965,0.0062012216
122,SPS-District K-12,K-12 School,JOHN MUIR ELEMENTARY SCHOOL(SPS-DISTRICT),3301 S HORTON ST,SEATTLE,WA,98144,SOUTHEAST,47.57334571,-122.2906221,1/1/1970,58933,1,2,0,71,35.4000015259,111.3000030518,191.5,0.0032494528
125,SPS-District K-12,K-12 School,ASA MERCER JR HIGH SCHOOL (SPS-DISTRICT),1600 S COLUMBIAN WAY,SEATTLE,WA,98108,GREATER DUWAMISH,47.56301254,-122.3112112,1/1/1957,130862,1,1,0,67,45.0999984741,80.3000030518,387.799987793,0.002963427
127,SPS-District K-12,K-12 School,WHITWORTH ELEMENTARY SCHOOL (SPS-DISTRICT),5215 46TH AVE S,SEATTLE,WA,98118,SOUTHEAST,47.55446464,-122.2764003,1/1/1989,59955,1,3,0,92,26.7999992371,80.4000015259,139,0.0023184055
130,SPS-District K-12,K-12 School,MCCLURE MIDDLE (SPS-DISTRICT),1915 1ST AVE W,SEATTLE,WA,98119,MAGNOLIA / QUEEN ANNE,47.6367344,-122.3589452,1/1/1964,93218,1,2,0,86,32,65.1999969482,208.8000030518,0.0022399108
131,NonResidential,Other,CENTURYLINK: LAKEVIEW MAIN,1200 NE 64TH ST,SEATTLE,WA,98115,NORTHEAST,47.6753048,-122.315342,1/1/1941,49000,1,4,0,,131.5,412.8999938965,573.200012207,0.0116979594
132,NonResidential,Other,ROOSEVELT SQUARE,6417 ROOSEVELT WAY NE,SEATTLE,WA,98115,NORTHEAST,47.6756688,-122.3161909,1/1/1929,119146,1,2,0,,37.4000015259,76.5,312.8999938965,0.0026261897
136,NonResidential,Hotel,HOLIDAY INN EXPRESS - SEATTLE NORTH,14115 AURORA AVE N,SEATTLE,WA,98133,NORTHWEST,47.73127184,-122.3462382,1/1/2001,51390,1,4,0,86,75.1999969482,137.5,256.8999938965,0.0049990269
137,SPS-District K-12,K-12 School,BROADVIEW THOMSON ELEMENTARY (SPS-DISTRICT),13052 GREENWOOD AVE N,SEATTLE,WA,98133,NORTHWEST,47.72465187,-122.3539331,1/1/1963,131013,1,2,0,88,30.1000003815,59.2999992371,273.5,0.0020875791
138,SPS-District K-12,K-12 School,INGRAHAM HIGH (SPS-DISTRICT),1819 N 135TH ST,SEATTLE,WA,98133,NORTHWEST,47.72595704,-122.3375948,1/1/1959,245587,1,1,0,94,44.7999992371,79.3000030518,720.200012207,0.0029325657
139,NonResidential,Hotel,EXTENDED STAY AMERICA,13300 STONE AVE N,SEATTLE,WA,98133,NORTHWEST,47.72527664,-122.3410974,1/1/2002,70609,1,3,0,75,46.7000007629,104.6999969482,242.6000061035,0.0034358227
140,SPS-District K-12,K-12 School,B F DAY ELEMENTARY (SPS-DISTRICT),3921 LINDEN AVE N,SEATTLE,WA,98103,LAKE UNION,47.65474724,-122.3490987,1/1/1900,66588,1,3,0,74,30.8999996185,97.1999969482,183.3000030518,0.0027527483
144,NonResidential,Hotel,ALEXIS HOTEL,1007 1ST AVE,SEATTLE,WA,98104,DOWNTOWN,47.60477066,-122.33677673,1/1/1904,190980,1,5,0,97,36.2999992371,89.9000015259,537.9000244141,0.0028165254
145,Nonresidential COS,Other - Entertainment/Public Assembly,BENAROYA HALL,1301 3RD AVE,SEATTLE,WA,98101,DOWNTOWN,47.60810553,-122.3369663,1/1/1998,189750,1,6,0,,74.6999969482,197.8000030518,1174.4000244141,0.0061891964
147,NonResidential,Hospital (General Medical & Surgical),SWEDISH MEDICAL CENTER BALLARD CAMPUS,5300 TALLMAN AVE NW,SEATTLE,WA,98107,BALLARD,47.66742706,-122.37961578,1/1/1954,302661,4,5,0,28,209.3999938965,442.8999938965,4523.7998046875,0.014946755
148,SPS-District K-12,K-12 School,WEST WOODLAND PARK ELEMENTARY (SPS-DISTRICT),5601 5TH AVE NW,SEATTLE,WA,98107,SHARED: BALLARD & NORTHWEST,47.67031559,-122.3622592,1/1/1990,55513,1,2,0,91,27.8999996185,87.6999969482,142.3999938965,0.0025651648
163,Nonresidential COS,Other,FIRE STATION 10/FAC/EOC,105 5TH AVE S,SEATTLE,WA,98104,DOWNTOWN,47.60158047,-122.32771508,1/1/2006,71974,1,4,0,,145,361.8999938965,813.0999755859,0.0112971347
167,NonResidential,Museum,WING LUKE MUSEUM/KONG YICK BLDG.,723 S KING ST,SEATTLE,WA,98104,DOWNTOWN,47.59809588,-122.3228283,1/1/1910,58000,1,4,0,,35.7999992371,90.1999969482,162.6000061035,0.0028034484
168,NonResidential,Hotel,HAMPTON INN & SUITES,700 5TH AVE N,SEATTLE,WA,98109,MAGNOLIA / QUEEN ANNE,47.62557152,-122.347197,1/1/1996,113702,1,4,0,75,68.1999969482,152.8000030518,570.0999755859,0.0050139837
169,SPS-District K-12,K-12 School,FRANKLIN HIGH SCHOOL (SPS-DISTRICT),3013 S MOUNT BAKER BLVD,SEATTLE,WA,98144,SOUTHEAST,47.57604857,-122.2928463,1/1/1912,289588,1,4,0,93,29.7999992371,74.5999984741,673,0.0023239913
170,NonResidential,College/University,SCC FINE ARTS BLDG,801 E PINE ST,SEATTLE,WA,98122,EAST,47.61496242,-122.3217405,1/1/1915,64820,1,3,0,,42.5,104.6999969482,213.1999969482,0.0032891083
172,Campus,College/University,SOUTH SEATTLE COMMUNITY COLLEGE - CAMPUS MASTER ID,6000 16TH AVE SW,SEATTLE,WA,98106,DELRIDGE NEIGHBORHOODS,47.54550494,-122.3500523,1/1/1970,494941,27,2,0,,77.5,189.1000061035,2880.1999511719,0.0058192794
173,NonResidential,Office,SEATTLE CHILDREN'S HOSPITAL (70th & SAND POINT ADMIN BLDG),6901 SAND POINT WAY NE,SEATTLE,WA,98115,NORTHEAST,47.67843749,-122.2641702,1/1/2002,92300,1,2,0,,167,472.700012207,1358.5,0.0147183099
174,Nonresidential COS,"Repair Services (Vehicle, Shoe, Locksmith, etc)",CSC Vehicle Maintenance (E),805 S DEARBORN ST,SEATTLE,WA,98134,GREATER DUWAMISH,47.59455098,-122.3218127,1/1/1950,68359,1,1,0,,96.1999969482,192.5,456.6000061035,0.0066794424
175,SPS-District K-12,K-12 School,GARFIELD HIGH (SPS-DISTRICT),400 23RD AVE,SEATTLE,WA,98122,CENTRAL,47.60502046,-122.3018326,1/1/1900,254523,1,3,0,63,53.5,118.6999969482,996.200012207,0.0039139882
176,SPS-District K-12,K-12 School,EMERSON ELEMENTARY SCHOOL (SPS-DISTRICT),9709 60TH AVE S,SEATTLE,WA,98118,SOUTHEAST,47.51466446,-122.2588187,1/1/1909,78804,1,3,0,89,33.7999992371,82.8000030518,205.5,0.0026077356
177,SPS-District K-12,K-12 School,MADRONA SCHOOL (SPS-DISTRICT),1121 33RD AVE,SEATTLE,WA,98122,CENTRAL,47.61229388,-122.2908219,1/1/1900,66994,1,3,0,84,34.0999984741,89.5,183,0.0027315879
178,SPS-District K-12,K-12 School,VAN ASSELT @  (SPS-DISTRICT),8311 BEACON AVE S,SEATTLE,WA,98118,GREATER DUWAMISH,47.52933502,-122.28844452,1/1/2001,98357,1,3,0,89,34.2999992371,78.5999984741,251.1000061035,0.0025529449
179,NonResidential,Office,UNION GOSPEL MISSION ASSN,3800 S OTHELLO ST,SEATTLE,WA,98118,GREATER DUWAMISH,47.53830025,-122.2840532,1/1/1958,50765,1,1,0,,85,240.6999969482,361.1000061035,0.0071131686
180,NonResidential,Other - Lodging/Residential,UNION GOSPEL MISSION ASSN / HOPE PLACE,3802 S OTHELLO ST,SEATTLE,WA,98118,GREATER DUWAMISH,47.53830025,-122.2840532,1/1/2009,89000,1,5,0,,22.7000007629,25.2999992371,109.5,0.0012303371
182,NonResidential,College/University,OTTO MILLER HALL,3469 3RD AVE W,SEATTLE,WA,98119,MAGNOLIA / QUEEN ANNE,47.65153666,-122.3615464,1/1/1980,52611,1,2,0,,83.5999984741,198.3000030518,333.3999938965,0.0063370777
183,NonResidential,Residence Hall/Dormitory,"EMERSON HALL, SEATTLE PACIFIC UNIVERSITY",362 W EMERSON ST,SEATTLE,WA,98119,MAGNOLIA / QUEEN ANNE,47.65076266,-122.3638034,1/1/2001,135520,1,4,0,88,32.5999984741,71.5,321.3999938965,0.0023716056
185,SPS-District K-12,K-12 School,NATHAN HALE HIGH (SPS-DISTRICT),10750 30TH AVE NE,SEATTLE,WA,98125,NORTH,47.70783561,-122.294626,1/1/1962,236758,1,2,0,96,33.4000015259,77.4000015259,591.9000244141,0.0025000212
187,NonResidential,Other,KING COUNTY YOUTH SERVICE CENTER OFFICE AND COURT BUILDING,1211 E ALDER ST,SEATTLE,WA,98122,CENTRAL,47.60411727,-122.3153334,1/1/1971,215922,3,6,0,,64.4000015259,161.8999938965,1130.1999511719,0.0052342973
189,SPS-District K-12,K-12 School,GREENWOOD ELEMENTARY (SPS-DISTRICT),144 NW 80TH ST,SEATTLE,WA,98117,NORTHWEST,47.68734351,-122.3598407,1/1/1908,62526,1,3,0,97,29.6000003815,66,135.6999969482,0.0021702971
190,NonResidential,Office,EMERALD SERVICES,7343 E MARGINAL WAY S,SEATTLE,WA,98108,GREATER DUWAMISH,47.5353246,-122.3186034,1/1/2007,54015,1,3,0,19,62,169.6000061035,274.799987793,0.0050874755
194,NonResidential,Retail Store,NORTHGATE MALL SHOPPING CENTER RETAIL STORES  - ACTIVE/PRIMARY ID,401 NE NORTHGATE WAY,SEATTLE,WA,98125,NORTH,47.70752593,-122.3267018,1/1/1951,530039,1,1,0,98,54.7999992371,124.0999984741,2148.6000976563,0.0040536642
195,NonResidential,Other/Specialty Hospital,KINDRED HOSPITAL,10631 8TH AVE NE,SEATTLE,WA,98125,NORTH,47.70624752,-122.3217548,1/1/1964,47012,1,3,0,,161.8999938965,319.700012207,525.0999755859,0.0111694881
197,NonResidential,Retail Store,NORDSTROM- NORTHGATE MALL,301 NE NORTHGATE WAY,SEATTLE,WA,98125,NORTH,47.70798492,-122.32534027,1/1/1965,122000,1,4,0,75,72.4000015259,226.1000061035,783.299987793,0.0064204917
198,NonResidential,Hospital (General Medical & Surgical),SEATTLE CHILDREN'S HOSPITAL  (MAIN CAMPUS),4800 SAND POINT WAY NE,SEATTLE,WA,98105,NORTHEAST,47.66356652,-122.2813832,1/1/1953,879000,6,10,0,13,286,573.200012207,17467.599609375,0.019872127
200,NonResidential,Financial Office,Verity Credit Union,11027 MERIDIAN AVE N,SEATTLE,WA,98133,NORTHWEST,47.70952866,-122.3346575,1/1/1996,37280,1,3,0,74,82.9000015259,188.8000030518,229.1999969482,0.0061480686
205,SPS-District K-12,K-12 School,BALLARD HIGH (SPS-DISTRICT),1418 NW 65TH ST,SEATTLE,WA,98117,BALLARD,47.67678666,-122.3739682,1/1/1999,242795,1,2,0,82,36.4000015259,103.1999969482,740.200012207,0.0030486625
209,NonResidential,Self-Storage Facility,MADISON SELF STORAGE (NOT PART OF CAMPUS),1111 E MADISON ST,SEATTLE,WA,98122,EAST,47.61229181,-122.3170942,1/1/1910,85521,1,5,0,,13.3000001907,24.6000003815,75.9000015259,0.0008875013
211,Campus,College/University,NORTH SEATTLE COMMUNITY COLLEGE CAMPUS MASTER ID,9600 COLLEGE WAY N,SEATTLE,WA,98103,NORTHWEST,47.69879162,-122.3338342,1/1/1970,655288,11,2,0,,55.5999984741,162.3000030518,3944.8000488281,0.0060199486
212,SPS-District K-12,K-12 School,SHARPLES JR HIGH (SPS-DISTRICT),3928 S GRAHAM ST,SEATTLE,WA,98118,SOUTHEAST,47.54657866,-122.2820193,1/1/1950,173185,1,2,0,72,40.2000007629,63.2999992371,432.200012207,0.0024955973
214,SPS-District K-12,Other,BOREN JR. HIGH SCHOOL (SPS-DISTRICT),5950 DELRIDGE WAY SW,SEATTLE,WA,98106,DELRIDGE NEIGHBORHOODS,47.54806021,-122.3620019,1/1/1962,145341,1,1,0,,36.9000015259,67.1999969482,340.299987793,0.0023413902
215,NonResidential,Non-Refrigerated Warehouse,RAINIER BOTTLING PLANT,5628 AIRPORT WAY S,SEATTLE,WA,98108,GREATER DUWAMISH,47.54941628,-122.3160421,1/1/1904,114297,1,4,0,67,15.1999998093,31.6000003815,123,0.0010761437
216,SPS-District K-12,K-12 School,RAINIER BEACH HIGH SCHOOL (SPS-DISTRICT),8815 SEWARD PARK AVE S,SEATTLE,WA,98118,SOUTHEAST,47.52383423,-122.2660141,1/1/1960,184125,1,2,0,88,45.5,81.1999969482,550.5,0.0029898167
217,SPS-District K-12,K-12 School,MARCUS WHITMAN JR HIGH (SPS-DISTRICT),9201 15TH AVE NW,SEATTLE,WA,98117,BALLARD,47.69689628,-122.3778526,1/1/1959,160270,1,1,0,76,36.7999992371,64.5999984741,385,0.0024021963
220,NonResidential,Non-Refrigerated Warehouse,SEARS & OTHERS WAREHOUSE #8109,4786 1ST AVE S,SEATTLE,WA,98134,GREATER DUWAMISH,47.55860699,-122.3332277,1/1/1937,234144,1,1,0,82,31.5,46.7999992371,446.700012207,0.0019078004
223,NonResidential,Retail Store,WESTWOOD VILLAGE - BLDG A,2600 SW BARTON ST,SEATTLE,WA,98126,DELRIDGE NEIGHBORHOODS,47.52131741,-122.3668974,1/1/1966,65425,1,1,0,81,41.5999984741,121.0999984741,231.3999938965,0.0035368742
224,NonResidential,Retail Store,WESTWOOD VILLAGE - BLDG B (Includes QFC),2600 SW BARTON ST,SEATTLE,WA,98126,DELRIDGE NEIGHBORHOODS,47.52131741,-122.3668974,1/1/1965,67782,1,1,0,32,141.1000061035,241.1000061035,616,0.0090879585
225,SPS-District K-12,K-12 School,DENNY/ SEALTH CAMPUS (SPS-DISTRICT),2500 SW THISTLE ST,SEATTLE,WA,98106,DELRIDGE NEIGHBORHOODS,47.52967421,-122.3666556,1/1/1956,367884,1,2,0,97,33.7999992371,81.9000015259,952.9000244141,0.0025902187
226,SPS-District K-12,K-12 School,ROXHILL ELEMENTARY SCHOOL(SPS-DISTRICT),9450 30TH AVE SW,SEATTLE,WA,98126,DELRIDGE NEIGHBORHOODS,47.51791397,-122.3706774,1/1/1958,46797,1,1,0,86,42.7000007629,81.4000015259,135.6000061035,0.0028976218
227,SPS-District K-12,K-12 School,WASHINGTON JR HIGH SCHOOL(SPS-DISTRICT),2101 S JACKSON ST,SEATTLE,WA,98144,CENTRAL,47.59792434,-122.3039472,1/1/1963,136188,1,3,0,67,40.9000015259,79.0999984741,380.3999938965,0.0027931976
228,NonResidential,Other,NORDIC HERITAGE MUSEUM (WEBSTER BLDG),3014 NW 67TH ST,SEATTLE,WA,98117,BALLARD,47.67771413,-122.3962337,1/1/1907,56000,1,3,0,,31.2999992371,65,124,0.0022142857
229,SPS-District K-12,K-12 School,BRIGHTON ELEMENTARY SCHOOL (SPS-DISTRICT),6725 45TH AVE S,SEATTLE,WA,98118,SOUTHEAST,47.54197311,-122.27677917,1/1/2004,67371,1,2,0,93,31,76.9000015259,162.1000061035,0.0024060799
230,NonResidential,Self-Storage Facility,U-HAUL RENTALS & MINI-STORAGE,6343 35TH AVE SW,SEATTLE,WA,98126,SOUTHWEST,47.54506084,-122.3773622,1/1/1969,52088,1,2,0,,22.7999992371,44.4000015259,81.3000030518,0.0015608202
231,SPS-District K-12,K-12 School,HAMILTON MIDDLE (SPS-DISTRICT),1610 N 41ST ST,SEATTLE,WA,98103,LAKE UNION,47.6572102,-122.3375797,1/1/1928,127776,1,3,0,82,32.4000015259,92.3000030518,347.6000061035,0.0027203857
232,NonResidential,Hotel,SILVER CLOUD INN LAKE UNION,1150 FAIRVIEW AVE N,SEATTLE,WA,98109,LAKE UNION,47.62970427,-122.3290596,1/1/1998,123920,1,5,0,82,72.3000030518,144.1999969482,621.200012207,0.0050129117
233,Nonresidential COS,Museum,ARMORY BUILDING (MOHAI),860 TERRY AVE N,SEATTLE,WA,98109,LAKE UNION,47.62759406,-122.3366092,1/1/1900,43000,1,1,0,,170.6999969482,356.299987793,520.4000244141,0.0121023261
234,Nonresidential COS,Non-Refrigerated Warehouse,SEATTLE CITY LIGHT ROY STREET WAREHOUSE,800 ALOHA ST,SEATTLE,WA,98109,MAGNOLIA / QUEEN ANNE,47.62651741,-122.340841,1/1/1926,53944,1,2,0,,13.3000001907,41.5999984741,63.5999984741,0.0011790004
235,NonResidential,Hotel,COURTYARD BY MARRIOTT - SEATTLE,925 WESTLAKE AVE N,SEATTLE,WA,98109,MAGNOLIA / QUEEN ANNE,47.62754003,-122.3405732,1/1/1998,141591,1,7,0,77,75.8000030518,161.5,769,0.0054311362
237,SPS-District K-12,K-12 School,WHITTIER ELEMENTARY (SPS-DISTRICT),7501 13TH AVE NW,SEATTLE,WA,98117,BALLARD,47.68367156,-122.3729249,1/1/1999,67235,1,2,0,87,34.2999992371,89.9000015259,184.6000061035,0.0027455939
238,Nonresidential COS,Office,CITY OF SEATTLE - NSC,9700 STONE AVE N,SEATTLE,WA,98103,NORTHWEST,47.69975953,-122.340249,1/1/1957,94288,1,2,0,40,97,255.1000061035,733.700012207,0.0077814782
239,SPS-District K-12,K-12 School,GATEWOOD ELEMENTARY SCHOOL (SPS-DISTRICT),4320 SW MYRTLE ST,SEATTLE,WA,98136,SOUTHWEST,47.54026729,-122.3884963,1/1/1910,58118,1,3,0,98,23.2000007629,65.0999984741,113.9000015259,0.0019598059
241,NonResidential,Hotel,HOTEL NEXUS - NORTHGATE,2140 N NORTHGATE WAY,SEATTLE,WA,98133,NORTHWEST,47.70923419,-122.3323693,1/1/1968,64893,1,4,0,73,93.3000030518,178.5,411.299987793,0.0063381256
242,SPS-District K-12,K-12 School,OLYMPIC VIEW (SPS-DISTRICT),504 NE 95TH ST,SEATTLE,WA,98115,NORTH,47.69820046,-122.321085,1/1/1989,52792,1,2,0,,,,,
243,SPS-District K-12,K-12 School,VAN ASSELT SCHOOL (SPS-DISTRICT),7201 BEACON AVE S,SEATTLE,WA,98108,GREATER DUWAMISH,47.53836703,-122.2964274,1/1/1950,70762,1,1,0,92,45.5,59.4000015259,185.1000061035,0.0026158108
244,NonResidential,Office,WASHINGTON PARK BUILDING,68 S WASHINGTON ST,SEATTLE,WA,98104,DOWNTOWN,47.601058,-122.335182,1/1/1900,44558,1,3,0,83,34.2999992371,91.5,123.5999984741,0.0027739126
245,NonResidential,Other - Entertainment/Public Assembly,CENTURYLINK FIELD-Stadium,800 OCCIDENTAL AVE S,SEATTLE,WA,98104,GREATER DUWAMISH,47.59435403,-122.3301787,1/1/1999,1585960,1,6,0,,37.7999992371,106.9000015259,5014,0.0031614921
247,Nonresidential COS,Distribution Center,CITY LIGHT - SOUTH SERVICE CENTER BLDG A,400 S SPOKANE ST,SEATTLE,WA,98134,GREATER DUWAMISH,47.57125847,-122.331498,1/1/1924,180725,1,2,0,,55.2000007629,165.8999938965,864.5,0.0047835109
248,Nonresidential COS,Non-Refrigerated Warehouse,CITY LIGHT - SOUTH SERVICE CENTER BLDG B,400 S SPOKANE ST,SEATTLE,WA,98134,GREATER DUWAMISH,47.57125847,-122.331498,1/1/1965,70320,1,2,0,,58.5,183.8000030518,366.200012207,0.0052076225
249,NonResidential,Other - Entertainment/Public Assembly,SAFECO FIELD,1250 1ST AVE S,SEATTLE,WA,98134,GREATER DUWAMISH,47.59134229,-122.3319719,1/1/1999,1172127,1,3,0,,49.0999984741,121.8000030518,4467.2001953125,0.0038111913
250,NonResidential,Hotel,SILVER CLOUD INN SEATTLE,1046 1ST AVE S,SEATTLE,WA,98134,GREATER DUWAMISH,47.59271999,-122.3336896,1/1/2005,144222,1,9,0,61,90.9000015259,188,925.5999755859,0.0064178834
257,NonResidential,Non-Refrigerated Warehouse,HARBOR ISLAND WAREHOUSE,3235 16TH AVE SW,SEATTLE,WA,98134,GREATER DUWAMISH,47.57463912,-122.3560342,1/1/1916,79600,0,4,0,55,22.3999996185,70.5,159,0.0019974874
260,SPS-District K-12,,LINCOLN HIGH (SPS-DISTRICT),4400 INTERLAKE AVE N,SEATTLE,WA,98103,LAKE UNION,47.66006599,-122.3393444,1/1/1906,241066,1,4,0,,,,,
261,Campus,Office,BOEING SOUTH PARK CAMPUS REPORT,1420 S TRENTON ST,SEATTLE,WA,98108,GREATER DUWAMISH,47.52440204,-122.3115544,1/1/1980,334368,16,2,0,,154.5,439.299987793,4384.8999023438,0.0131139939
263,NonResidential,Parking,THORNTON CINEMA BUILDING & PARKING GARAGE,301 NE 103RD ST,SEATTLE,WA,98125,NORTH,47.7024765,-122.32480621,1/1/2008,84739,1,6,0,,111.8000030518,298.8999938965,767.0999755859,0.0090525021
264,NonResidential,Mixed Use Property,TRIBECA CONDOS & STORE,516 1ST AVE W,SEATTLE,WA,98119,MAGNOLIA / QUEEN ANNE,47.62392426,-122.35764313,1/1/2002,110785,1,4,51,,95.8000030518,293.5,930.200012207,0.0083964437
265,Multifamily MR (5-9),Multifamily Housing,2024 THIRD AVE/YWCA,2024 3RD AVE,SEATTLE,WA,98121,DOWNTOWN,47.61314884,-122.3415521,1/1/2003,125694,1,7,145,,77.0999984741,171.3999938965,709.700012207,0.0056462521
266,Multifamily LR (1-4),Multifamily Housing,WEST SEATTLE COMM. RESOURCE CENTER/FOOD BANK APT/MIXED USE,6500 35TH AVE SW,SEATTLE,WA,98126,DELRIDGE NEIGHBORHOODS,47.54423839,-122.376171,1/1/2007,52134,1,4,34,85,23.2999992371,73,107.9000015259,0.0020696667
267,NonResidential,Hotel,PINE ST. CONDO-ELLIOTT GRAND HYATT SEATTLE,721 PINE ST,SEATTLE,WA,98101,DOWNTOWN,47.61267744,-122.33393177,1/1/1999,551736,1,0,0,,115.6999969482,271.700012207,4811.2998046875,0.0087202934
268,NonResidential,Hospital (General Medical & Surgical),SWEDISH MEDICAL CENTER CHERRY HILL CAMPUS,500 17TH AVE,SEATTLE,WA,98122,CENTRAL,47.60710663,-122.3107827,1/1/1990,601615,6,5,0,45,228.8000030518,434.799987793,9318.599609375,0.0154893073
273,SPS-District K-12,K-12 School,HIGHLAND PARK SCHOOL (SPS-DISTRICT),1012 SW TRENTON ST,SEATTLE,WA,98106,DELRIDGE NEIGHBORHOODS,47.52560204,-122.3487068,1/1/1999,71714,1,1,0,90,31.2000007629,87.8000030518,186.6000061035,0.0026020025
274,NonResidential,Non-Refrigerated Warehouse,MINI-WAREHOUSE/RETAIL,3616 STONE WAY N,SEATTLE,WA,98103,LAKE UNION,47.65094364,-122.3422377,1/1/1991,67236,1,3,1,91,7.6999998093,20.7000007629,42,0.0006246654
276,NonResidential,Hospital (General Medical & Surgical),HARBORVIEW MEDICAL CENTER,325 9TH AVE,SEATTLE,WA,98104,EAST,47.60387131,-122.3226998,1/1/2000,1350182,9,8,0,30,219.1000061035,508.5,23468.099609375,0.0173814342
278,NonResidential,Senior Care Community,ID VILLAGE SQUARE 1,802 S DEARBORN ST,SEATTLE,WA,98134,DOWNTOWN,47.59626518,-122.3219466,1/1/1999,102796,1,5,75,,103.3000030518,270.1000061035,849.0999755859,0.0082600488
279,SPS-District K-12,K-12 School,WEST SEATTLE HIGH SCHOOL (SPS-DISTRICT),3000 CALIFORNIA AVE SW,SEATTLE,WA,98116,SOUTHWEST,47.57662845,-122.3846578,1/1/1920,208981,1,2,0,84,36.9000015259,86.8000030518,581.5,0.0027825496
280,Multifamily MR (5-9),Multifamily Housing,THE WINTONIA,1431 MINOR AVE,SEATTLE,WA,98101,EAST,47.61358781,-122.3279319,1/1/1909,50350,1,6,92,37,77.8000030518,154,270.5,0.0053723932
281,NonResidential,K-12 School,UNIVERSITY HTS GRADE SCHOOL,5031 UNIVERSITY WAY NE,SEATTLE,WA,98105,NORTHEAST,47.66549171,-122.3140067,1/1/1928,55500,1,2,0,84,36.0999984741,38.2999992371,106.8000030518,0.0019243244
282,NonResidential,Hotel,HOTEL DECA,4507 BROOKLYN AVE NE,SEATTLE,WA,98105,NORTHEAST,47.66156526,-122.3146098,1/1/1931,106860,1,16,0,46,113.0999984741,192.8999938965,777.799987793,0.0072786823
283,NonResidential,Office,LAKE CITY CENTER,12360 LAKE CITY WAY NE,SEATTLE,WA,98125,NORTH,47.71892746,-122.2947589,1/1/1972,50759,1,5,0,63,60,168.1999969482,253.3999938965,0.004992218
284,NonResidential,Worship Facility,UNIV CONGREGATIONAL CHURCH,4505 16TH AVE NE,SEATTLE,WA,98105,NORTHEAST,47.66176886,-122.3112037,1/1/1952,56772,1,2,0,49,41.4000015259,78.5999984741,159,0.0028006764
285,NonResidential,Worship Facility,UNIVERSITY PRESBY CHURCH,4550 15TH AVE NE,SEATTLE,WA,98105,NORTHEAST,47.66262897,-122.3114754,1/1/1952,103000,1,3,0,40,47.2000007629,99.5999984741,346.799987793,0.0033669902
286,SPS-District K-12,K-12 School,ROOSEVELT HIGH (SPS-DISTRICT),1410 NE 66TH ST,SEATTLE,WA,98115,NORTHEAST,47.67746117,-122.3130281,1/1/2004,269297,1,3,0,79,39,100.1999969482,831.200012207,0.003086555
287,SPS-District K-12,K-12 School,BRYANT ELEMENTARY (SPS-DISTRICT),3311 NE 60TH ST,SEATTLE,WA,98115,NORTHEAST,47.67115081,-122.2918182,1/1/1926,75174,1,3,0,80,35.7000007629,81.5,199.3000030518,0.0026511826
289,SPS-District K-12,K-12 School,FRANTZ H COE ELEMENTARY SCHOOL (SPS-DISTRICT),2424 7TH AVE W,SEATTLE,WA,98119,MAGNOLIA / QUEEN ANNE,47.64090041,-122.3656176,1/1/2002,75214,1,3,0,88,30.7000007629,81.3000030518,185.8999938965,0.0024716142
290,SPS-District K-12,K-12 School,JAMES MADISON JR HIGH SCHOOL (SPS-DISTRICT),3429 45TH AVE SW,SEATTLE,WA,98116,SOUTHWEST,47.5724098,-122.3916721,1/1/1928,134918,1,3,0,93,27,72,294.799987793,0.0021850308
291,SPS-District K-12,K-12 School,COLMAN SCHOOL (SPS-DISTRICT),2401 S IRVING ST,SEATTLE,WA,98144,CENTRAL,47.59101433,-122.2981281,1/1/1991,64414,1,2,0,65,36.7000007629,115.1999969482,210.3000030518,0.0032648183
292,SPS-District K-12,,JOHN MARSHALL (SPS-DISTRICT),520 NE RAVENNA BLVD,SEATTLE,WA,98115,NORTHWEST,47.67726399,-122.3223367,1/1/1946,92437,1,3,0,,,,,
293,NonResidential,Other - Entertainment/Public Assembly,ACT THEATER,700 UNION ST,SEATTLE,WA,98101,DOWNTOWN,47.61104202,-122.33238983,1/1/1914,128766,1,7,0,,50.9000015259,156,574.5,0.0044615815
294,NonResidential,Residence Hall/Dormitory,YWCA Women's Residence,1118 5TH AVE,SEATTLE,WA,98101,DOWNTOWN,47.60775556,-122.3324724,1/1/1913,101645,1,9,0,71,53.5999984741,117.8000030518,,
295,NonResidential,Other,CENTURYLINK: 3RD AVE 3-D,1122 3RD AVE,SEATTLE,WA,98101,DOWNTOWN,47.60683648,-122.3346694,1/1/1955,203000,1,15,0,,313.6000061035,984.799987793,5664.2001953125,0.027902464
296,Multifamily LR (1-4),Multifamily Housing,COOPER SCHOOL ARTIST'S LOFTS,4408 DELRIDGE WAY SW,SEATTLE,WA,98106,DELRIDGE NEIGHBORHOODS,47.56364367,-122.3629825,1/1/1917,56617,1,4,36,18,33.7999992371,78.4000015259,143.3000030518,0.002531042
297,Multifamily MR (5-9),Multifamily Housing,LAKE CITY COURT,12738 33RD AVE NE,SEATTLE,WA,98125,NORTH,47.72231008,-122.2918283,1/1/2009,43673,1,6,76,57,55.0999984741,131.6999969482,183,0.004190232
299,Multifamily LR (1-4),Multifamily Housing,OTHELLO BUILDING,3815 S OTHELLO ST,SEATTLE,WA,98118,GREATER DUWAMISH,47.53683267,-122.2840381,1/1/2003,43962,1,4,24,,65.6999969482,198.1000061035,250.6999969482,0.0057026522
300,SPS-District K-12,K-12 School,CLEVELAND HIGH SCHOOL (SPS-DISTRICT),5511 15TH AVE S,SEATTLE,WA,98108,GREATER DUWAMISH,47.55156934,-122.3138036,1/1/1927,204961,1,3,0,94,39.2000007629,89.1999969482,595.9000244141,0.0029073825
302,NonResidential,Other,WA ARMY NAT'L GUARD,1600 W ARMORY WAY,SEATTLE,WA,98119,MAGNOLIA / QUEEN ANNE,47.63640533,-122.3791694,1/1/1973,77810,1,1,0,,37.0999984741,81.4000015259,210.1000061035,0.0027001672
313,NonResidential,Medical Office,ELLIOTT PARK BUILDING,201 ELLIOTT AVE W,SEATTLE,WA,98119,MAGNOLIA / QUEEN ANNE,47.61994816,-122.3606641,1/1/1927,156546,1,5,0,7,125.6999969482,329.1000061035,1574.5,0.0100577466
314,NonResidential,Hotel,EDGEWATER INN,2411 ALASKAN WAY,SEATTLE,WA,98121,DOWNTOWN,47.61245737,-122.3521832,1/1/1961,122309,1,4,0,13,196.6999969482,317.700012207,1511.0999755859,0.0123547734
315,Campus,Other,PORT OF SEATTLE  BELL HARBOR COMPLEX  & CONFERENCE - CAMPUS,2201 ALASKAN WAY,SEATTLE,WA,98121,DOWNTOWN,47.61120625,-122.34849684,1/1/1995,217088,4,3,0,,116.9000015259,266.3999938965,1882.6999511719,0.0086725197
316,NonResidential,Hotel,SEATTLE WATERFRONT MARRIOTT,2100 ALASKAN WAY,SEATTLE,WA,98121,DOWNTOWN,47.61067514,-122.3465482,1/1/2003,277000,1,8,0,23,100.3000030518,216.1000061035,2002.0999755859,0.0072277977
317,Nonresidential COS,Other - Entertainment/Public Assembly,SEATTLE AQUARIUM,1421 ALASKAN WAY,SEATTLE,WA,98101,DOWNTOWN,47.60725784,-122.34207153,1/1/1980,69400,1,2,0,,225.8000030518,581.200012207,1242,0.0178962536
318,NonResidential,Other,PIER 54  IVARS ACRES OF CLAMS,1003 ALASKAN WAY,SEATTLE,WA,98104,DOWNTOWN,47.60411925,-122.3396021,1/1/1900,66251,1,1,0,,96.0999984741,187.8000030518,436.8999938965,0.0065946173
319,NonResidential,Office,DAILY JOURNAL BUILDING,83 COLUMBIA ST,SEATTLE,WA,98104,DOWNTOWN,47.60272217,-122.33557892,1/1/1914,40000,1,4,0,98,34.2999992371,83.0999984741,110.5999984741,0.002765
320,NonResidential,Non-Refrigerated Warehouse,BMW SEATTLE - SERVICE CENTER,900 MAYNARD AVE S,SEATTLE,WA,98134,GREATER DUWAMISH,47.59457628,-122.3244189,1/1/2008,203504,1,4,0,72,18.6000003815,58.2999992371,336.299987793,0.0016525473
322,NonResidential,Office,KIRO RADIO & TELEVISION,2807 3RD AVE,SEATTLE,WA,98121,DOWNTOWN,47.61744918,-122.35032532,1/1/1968,100734,1,3,0,34,102,320.200012207,913.9000244141,0.0090724088
323,NonResidential,Office,GRANGE OFFICE PLAZA,200 CEDAR ST,SEATTLE,WA,98121,DOWNTOWN,47.61698381,-122.34958888,1/1/1981,59158,1,4,0,50,81.5999984741,235,408,0.0068967849
324,NonResidential,Office,FOURTH & BATTERY BUILDING,2401 4TH AVE,SEATTLE,WA,98121,DOWNTOWN,47.61591919,-122.34571548,1/1/1978,210807,1,12,0,36,91,283.1000061035,1696.6999511719,0.008048594
325,NonResidential,Retail Store,WESTLAKE MALL RETAIL PORTION,400 PINE ST,SEATTLE,WA,98101,DOWNTOWN,47.61171108,-122.33681575,1/1/1989,163430,1,4,0,91,60.5999984741,190.1999969482,880.5999755859,0.0053882395
326,NonResidential,Office,WEST LAKE TOWER OFFICE BUILDING,1601 5TH AVE,SEATTLE,WA,98101,DOWNTOWN,47.61175275,-122.33667433,1/1/1989,380397,1,25,0,71,65.4000015259,205.3999938965,2213.6999511719,0.0058194464
327,NonResidential,Retail Store,NORDSTROM DOWNTOWN,500 PINE ST,SEATTLE,WA,98101,DOWNTOWN,47.6124792,-122.33586069,1/1/1925,693450,1,10,0,92,58.2999992371,175.8999938965,3511.5,0.0050638114
328,NonResidential,Office,CENTURYLINK: SEATTLE BELL PLAZA,1600 7TH AVE,SEATTLE,WA,98101,DOWNTOWN,47.61323929,-122.33440399,1/1/1976,676853,1,33,0,89,59.7999992371,187.6999969482,3598.8000488281,0.0053169596
329,NonResidential,Office,1700 SEVENTH BUILDING,1700 7TH AVE,SEATTLE,WA,98101,DOWNTOWN,47.61374903,-122.33507976,1/1/2000,551798,1,23,0,88,58.2000007629,170.5,2742.3000488281,0.0049697535
330,NonResidential,Office,LLOYD BUILDING,603 STEWART ST,SEATTLE,WA,98101,DOWNTOWN,47.61378582,-122.33638554,1/1/1926,51447,1,10,0,92,61,121.6999969482,237.3000030518,0.0046125139
331,NonResidential,Office,TOWER BLDG,1809 7TH AVE,SEATTLE,WA,98101,DOWNTOWN,47.61391297,-122.33581187,1/1/1930,173770,1,17,0,92,43.4000015259,125.3000030518,638.5,0.0036743972
332,NonResidential,Office,TIMES SQUARE BUILDING (THE VANCE CORPORATION),414 OLIVE WAY,SEATTLE,WA,98101,DOWNTOWN,47.61232632,-122.33842968,1/1/1916,61533,1,5,0,63,59.4000015259,186.5,325.200012207,0.0052849692
333,NonResidential,Office,PLAZA 600 BUILDING,600 STEWART ST,SEATTLE,WA,98101,DOWNTOWN,47.61419225,-122.33715661,1/1/1969,226454,1,20,0,95,57.2000007629,128.3999938965,1016.700012207,0.0044896536
334,NonResidential,Office,WEST 8TH,2001 8TH AVE,SEATTLE,WA,98121,DOWNTOWN,47.61586761,-122.33737946,1/1/2009,582725,1,25,0,96,42.2999992371,130.6999969482,2171.1999511719,0.0037259427
335,NonResidential,Office,DENNY BUILDING,2200 6TH AVE,SEATTLE,WA,98121,DOWNTOWN,47.61673455,-122.34198091,1/1/1968,161000,1,12,0,88,57.5999984741,152.8999938965,772.5,0.0047981366
336,NonResidential,Office,1918 EIGHTH AVE,1918 8TH AVE,SEATTLE,WA,98101,DOWNTOWN,47.61596574,-122.33609553,1/1/2009,743562,1,36,0,97,51.5999984741,162.1999969482,3416.3000488281,0.004594506
337,NonResidential,Office,1800 9TH AVENUE BUILDING,1800 9TH AVE,SEATTLE,WA,98101,DOWNTOWN,47.61577337,-122.33379691,1/1/1990,339240,1,16,0,93,50.5,157.8000030518,1520,0.0044806037
338,NonResidential,Other,SEATTLE CHILDREN'S HOSPITAL  (RESEARCH INSTITUTE BLDG 1),1900 9TH AVE,SEATTLE,WA,98101,DOWNTOWN,47.61598206,-122.33448029,1/1/2004,250000,1,11,0,,247.3000030518,511.3999938965,4363.5,0.017454
339,NonResidential,Office,BRODERICK BUILDING,615 2ND AVE,SEATTLE,WA,98104,DOWNTOWN,47.60260831,-122.33300887,1/1/1900,81800,1,7,0,80,50.2999992371,150.3999938965,358.799987793,0.0043863079
340,NonResidential,Office,PIONEER BUILDING,600 1ST AVE,SEATTLE,WA,98104,DOWNTOWN,47.60188691,-122.33410075,1/1/1900,89355,1,6,0,55,53.0999984741,164.6000061035,418.799987793,0.0046869228
341,NonResidential,Office,DEXTER HORTON BUILDING,710 2ND AVE,SEATTLE,WA,98104,DOWNTOWN,47.60349737,-122.33226722,1/1/1922,388934,1,15,0,84,52.2000007629,159.1999969482,1785.1999511719,0.0045899817
342,NonResidential,Office,EXCHANGE BUILDING,821 2ND AVE,SEATTLE,WA,98104,DOWNTOWN,47.60402644,-122.33430506,1/1/1929,354587,1,22,0,98,27.7999992371,87.3000030518,877.4000244141,0.0024744281
343,NonResidential,Office,NORTON BUILDING,801 2ND AVE,SEATTLE,WA,98104,DOWNTOWN,47.60390362,-122.33424932,1/1/1958,251506,0,17,0,68,101.3000030518,242.8999938965,2046.3000488281,0.0081361878
345,NonResidential,Office,WELLS FARGO CENTER,999 3RD AVE,SEATTLE,WA,98104,DOWNTOWN,47.60523404,-122.33465706,1/1/1983,1065616,1,47,0,93,42.2999992371,132.3999938965,5062.3999023438,0.0047506793
346,NonResidential,Office,1000 2ND AVENUE BUILDING,1000 2ND AVE,SEATTLE,WA,98104,DOWNTOWN,47.60533104,-122.33503955,1/1/1986,495586,1,41,0,82,52.9000015259,166.1000061035,2331.6000976563,0.0047047336
347,NonResidential,Office,FEDERAL RESERVE BUILDING,1015 2ND AVE,SEATTLE,WA,98104,DOWNTOWN,47.60537505,-122.3356282,1/1/1950,89699,1,6,0,,26.5,70,197.5,0.0022018083
348,NonResidential,Office,1101 SECOND AVE OFFICE BUILDING,1101 2ND AVE,SEATTLE,WA,98101,DOWNTOWN,47.60571018,-122.33639455,1/1/1968,84838,1,8,0,89,37.2000007629,116.9000015259,280.8999938965,0.0033110162
349,NonResidential,Office,2ND & SENECA BLDS,1191 2ND AVE,SEATTLE,WA,98101,DOWNTOWN,47.60611343,-122.33672333,1/1/1991,522667,1,29,0,97,35.0999984741,109.5999984741,1628.9000244141,0.0031165159
350,NonResidential,Office,SECOND AND SPRING BUILDING,1100 2ND AVE,SEATTLE,WA,98101,DOWNTOWN,47.60601562,-122.33569636,1/1/1958,139226,1,6,0,,312.1000061035,955.200012207,3599.5,0.025853648
351,NonResidential,Office,1111 3RD AVE BUILDING,1111 3RD AVE,SEATTLE,WA,98101,DOWNTOWN,47.60619421,-122.33526667,1/1/1980,606050,1,34,0,77,49.7000007629,155.6000061035,2675.8999023438,0.0044153121
352,NonResidential,Office,ABRAHAM LINCOLN BUILDING,1110 3RD AVE,SEATTLE,WA,98101,DOWNTOWN,47.60668182,-122.33452606,1/1/1972,182780,1,14,0,95,53.0999984741,143.8999938965,814.5,0.0044561768
353,NonResidential,Office,SAFECO PLAZA / 1001 FOURTH AVENUE,1001 4TH AVE,SEATTLE,WA,98104,DOWNTOWN,47.60633748,-122.33369209,1/1/1969,856742,1,49,0,86,55,152.8999938965,3902.3000488281,0.0045548135
354,NonResidential,Office,FOURTH & MADISON ( IDX TOWER),925 4TH AVE,SEATTLE,WA,98104,DOWNTOWN,47.60566548,-122.33261347,1/1/2002,890593,1,37,0,93,46.7999992371,146.8999938965,3705.8999023438,0.0041611599
355,NonResidential,Office,901 FIFTH AVENUE,901 5TH AVE,SEATTLE,WA,98104,DOWNTOWN,47.60605613,-122.33178821,1/1/1973,599584,1,42,0,79,62.5,187.6000061035,3278.3999023438,0.0054677908
356,NonResidential,Office,CENTRAL BUILDING,810 3RD AVE,SEATTLE,WA,98104,DOWNTOWN,47.60504384,-122.33274356,1/1/1907,201480,1,8,0,88,48.2999992371,136.1999969482,829.700012207,0.0041180267
357,Nonresidential COS,Office,SEATTLE MUNICIPAL TOWER,700 5TH AVE,SEATTLE,WA,98104,DOWNTOWN,47.60491077,-122.32891587,1/1/1990,1223577,1,63,0,82,53.5999984741,168.3999938965,1.2000000477,9.80731124958802E-07
358,Nonresidential COS,Office,SEATTLE JUSTICE CENTER,610 5TH AVE,SEATTLE,WA,98104,DOWNTOWN,47.60403674,-122.32877322,1/1/2001,298278,1,14,0,,73,194.3999938965,1759,0.0058971832
359,Nonresidential COS,Office,CITY HALL,600 4TH AVE,SEATTLE,WA,98104,DOWNTOWN,47.60363382,-122.32999251,1/1/2003,199085,1,8,0,70,73,176.8000030518,1009.9000244141,0.0050727078
360,NonResidential,Office,CHINOOK BLDG - KING COUNTY,401 5TH AVE,SEATTLE,WA,98104,DOWNTOWN,47.60213517,-122.32847035,1/1/2006,372242,1,13,0,98,41.0999984741,113.1999969482,1259.1999511719,0.0033827455
361,NonResidential,Office,YESLER BUILDING,400 YESLER WAY,SEATTLE,WA,98104,DOWNTOWN,47.60185187,-122.32859693,1/1/1909,96582,1,7,0,98,32.0999984741,78.4000015259,238.6999969482,0.002471475
363,NonResidential,Retail Store,UNIVERSITY BOOK STORE,4326 UNIVERSITY WAY NE,SEATTLE,WA,98105,NORTHEAST,47.6605111,-122.3128304,1/1/1978,89200,1,2,0,83,70.5,206.3999938965,536.5999755859,0.0060156948
364,NonResidential,Office,UW TOWER BLDG COMPLEX,4333 BROOKLYN AVE NE,SEATTLE,WA,98105,NORTHEAST,47.66073759,-122.3146694,1/1/1971,474546,1,23,0,77,60.2999992371,189.1999969482,2544.3999023438,0.0053617561
365,NonResidential,Data Center,UW TOWER DATA CENTER,4310 12TH AVE NE,SEATTLE,WA,98105,NORTHEAST,47.66007677,-122.31539972,1/1/1969,36000,1,5,0,98,787.200012207,2471.6999511719,2521.1000976563,0.0700305583
366,NonResidential,Office,UNIVERSITY DISTRICT BUILDING,1107 NE 45TH ST,SEATTLE,WA,98105,NORTHEAST,47.66095645,-122.3162654,1/1/1961,79555,0,5,0,63,73.0999984741,151.3000030518,410.5,0.0051599522
367,NonResidential,Office,4311 11th Avenue NE,4311 11TH AVE NE,SEATTLE,WA,98105,NORTHEAST,47.66044059,-122.3169435,1/1/2002,95943,1,6,0,92,42,131.8000030518,358.1000061035,0.0037324245
368,NonResidential,Office,4300 ROOSEVELT,4300 ROOSEVELT WAY NE,SEATTLE,WA,98105,NORTHEAST,47.66053047,-122.3174071,1/1/2002,145754,1,5,0,93,43.2000007629,135.6999969482,560.4000244141,0.0038448346
369,NonResidential,Self-Storage Facility,SEATTLE VAULT SELF STORAGE,1800 TERRY AVE,SEATTLE,WA,98101,DOWNTOWN,47.61564776,-122.33229386,1/1/1964,93660,1,5,0,,8.8999996185,28,74.4000015259,0.0007943626
370,NonResidential,Office,METROPOLITAN PARK I  (WEST) OFFICE BLDG,1100 OLIVE WAY,SEATTLE,WA,98101,DOWNTOWN,47.61647081,-122.330698,1/1/1980,348270,1,18,0,82,66.5999984741,208.3000030518,2058.1999511719,0.0059097825
371,NonResidential,Office,METROPOLITAN PARK NORTH BUILDING,1220 HOWELL ST,SEATTLE,WA,98101,DOWNTOWN,47.61788951,-122.33127667,1/1/2000,201974,1,11,0,85,48.5,151.1000061035,867.4000244141,0.0042946123
372,NonResidential,Office,METROPOLITAN PARK EAST,1730 MINOR AVE,SEATTLE,WA,98101,DOWNTOWN,47.6166018,-122.32990312,1/1/1988,367623,1,20,0,73,70.5,220.1999969482,2298.1000976563,0.0062512413
373,NonResidential,Office,FOURTH & BLANCHARD BUILDING,2101 4TH AVE,SEATTLE,WA,98121,DOWNTOWN,47.61420011,-122.34223589,1/1/1979,432841,1,24,0,76,59.7000007629,187.5,2298.8999023438,0.0053111879
374,NonResidential,Mixed Use Property,DENDREON,3005 1ST AVE,SEATTLE,WA,98121,DOWNTOWN,47.61799869,-122.35459499,1/1/1980,70647,1,4,0,,99.0999984741,293.799987793,601.9000244141,0.0085198243
375,NonResidential,Office,THIRD AND BROAD BLDG,2901 3RD AVE,SEATTLE,WA,98121,DOWNTOWN,47.61836011,-122.35263651,1/1/1982,283267,1,6,0,66,72.8000030518,228.6999969482,1835.4000244141,0.0064793994
376,NonResidential,Office,5TH & BELL BUILDING,2301 5TH AVE,SEATTLE,WA,98121,DOWNTOWN,47.61605453,-122.34371185,1/1/2002,199210,1,6,0,80,65.3000030518,196.3000030518,1127.5999755859,0.0056603583
377,NonResidential,Office,SIXTH & WALL BUILDING (FORMER GROUP HEALTH),521 WALL ST,SEATTLE,WA,98121,DOWNTOWN,47.61778529,-122.34439698,1/1/1947,142795,0,3,0,,37.0999984741,116.3000030518,466,0.0032634196
379,NonResidential,Office,3101 WESTERN (FORMERLY AIRBORNE BLDG),3101 WESTERN AVE,SEATTLE,WA,98121,DOWNTOWN,47.61797602,-122.35649532,1/1/1984,190890,1,8,0,17,117.3000030518,368.299987793,1991.6999511719,0.0104337574
381,NonResidential,Supermarket/Grocery Store,QUALITY FOOD CENTER (QFC) (OLD ART'S SHOPPING CENT,9999 HOLMAN RD NW,SEATTLE,WA,98177,NORTHWEST,47.70184827,-122.36437781,1/1/1956,61666,1,1,0,60,216,505.299987793,1002.0999755859,0.0162504456
382,NonResidential,Office,COLLINS BUILDING,520 2ND AVE,SEATTLE,WA,98104,DOWNTOWN,47.60227966,-122.33202362,1/1/1900,41652,1,5,0,,72.8000030518,228.6999969482,269.8999938965,0.0064798808
383,NonResidential,Office,SMITH TOWER,506 2ND AVE,SEATTLE,WA,98104,DOWNTOWN,47.60188155,-122.33206429,1/1/1912,293849,1,42,0,83,65.6999969482,139.3999938965,,
384,NonResidential,Non-Refrigerated Warehouse,BUNGE FOODS,6901 FOX AVE S,SEATTLE,WA,98108,GREATER DUWAMISH,47.54032619,-122.33015747,1/1/1977,128800,1,1,0,97,14.5,21.2000007629,112.4000015259,0.0008726708
385,NonResidential,Office,SKINNER BLDG,1326 5TH AVE,SEATTLE,WA,98101,DOWNTOWN,47.60831575,-122.33544853,1/1/1927,226061,1,8,0,79,56.4000015259,155.3999938965,1076.9000244141,0.0047637586
386,NonResidential,Office,IBM BUILDING,1200 5TH AVE,SEATTLE,WA,98101,DOWNTOWN,47.60831575,-122.33544853,1/1/1964,263737,1,22,0,75,75.3000030518,190.1999969482,1624.4000244141,0.0061591662
387,NonResidential,Office,PUGET SOUND PLAZA,1325 4TH AVE,SEATTLE,WA,98101,DOWNTOWN,47.60831575,-122.33544853,1/1/1960,298426,1,21,0,68,102.6999969482,241.6000061035,2445.5,0.0081946613
388,NonResidential,Office,RAINIER TOWER,1301 5TH AVE,SEATTLE,WA,98101,DOWNTOWN,47.60816177,-122.33434527,1/1/1976,770527,1,42,0,56,73.6999969482,231.3000030518,5049.7998046875,0.0065536961
389,NonResidential,Hotel,FAIRMONT OLYMPIC HOTEL,411 UNIVERSITY ST,SEATTLE,WA,98101,DOWNTOWN,47.60816177,-122.33434527,1/1/1923,542305,1,12,0,22,119,240.8000030518,4854.2001953125,0.0089510519
390,NonResidential,Retail Store,LOWES & AMAZON W # 0067,2646 RAINIER AVE S,SEATTLE,WA,98144,SOUTHEAST,47.57965631,-122.29880174,1/1/1980,291940,1,2,0,84,39.5,113.6999969482,974.5,0.0033380147
391,NonResidential,Mixed Use Property,THAW CORP,8300 MILITARY RD S,SEATTLE,WA,98108,GREATER DUWAMISH,47.52726155,-122.29392927,1/1/1970,90785,0,1,0,11,71.3000030518,174.3999938965,498.799987793,0.0054942996
392,NonResidential,Non-Refrigerated Warehouse,"EUROPEAN SOAPS, LTD",920 N 137TH ST,SEATTLE,WA,98133,NORTHWEST,47.72957286,-122.34642876,1/1/1960,51116,1,1,0,93,21.7999992371,25.8999996185,61.7999992371,0.0012090148
393,NonResidential,Parking,500 YALE AVENUE NORTH,500 YALE AVE N,SEATTLE,WA,98109,LAKE UNION,47.62320708,-122.32984117,1/1/2009,71643,1,5,0,,40.5,127.3000030518,258.3999938965,0.0036067724
394,NonResidential,Office,REPUBLICAN BUILDING,501 EASTLAKE AVE E,SEATTLE,WA,98109,LAKE UNION,47.62347121,-122.32929694,1/1/2001,103494,1,5,0,44,65.1999969482,204.6000061035,599.9000244141,0.0057964715
395,NonResidential,Non-Refrigerated Warehouse,ALASKA OUTPORT TRANSPORTATION ASSN,4205 9TH AVE NW,SEATTLE,WA,98107,BALLARD,47.65748867,-122.36767478,1/1/1973,55248,1,1,0,4,61.7999992371,161.6999969482,273.1000061035,0.0049431655
396,NonResidential,Non-Refrigerated Warehouse,STIMSON INDUSTRIAL PARK,5301 SHILSHOLE AVE NW,SEATTLE,WA,98107,BALLARD,47.66611816,-122.38549485,1/1/1959,57300,1,2,0,54,79.4000015259,152.6999969482,309.700012207,0.0054048868
398,NonResidential,Office,SEATTLE TRADE AND TECHNOLOGY CENTER,2601 ELLIOTT AVE,SEATTLE,WA,98121,DOWNTOWN,47.61464888,-122.3535755,1/1/1916,339799,1,6,0,89,59.0999984741,170.1000061035,1448.5,0.0042628142
399,NonResidential,Office,WASH MUTUAL TOWER (1201 THIRD AVE),1201 3RD AVE,SEATTLE,WA,98101,DOWNTOWN,47.60722258,-122.3361529,1/1/1988,1128575,1,55,0,90,53,159.1999969482,4491.3999023438,0.0039797088
400,NonResidential,Office,GALLAND & SENECA BUILDINGS,1201 2ND AVE,SEATTLE,WA,98101,DOWNTOWN,47.60679898,-122.3371001,1/1/1906,98370,1,6,0,45,66.3000030518,207.5,579.200012207,0.0058879741
401,NonResidential,Hotel,WASHINGTON ATHLETIC CLUB,1325 6TH AVE,SEATTLE,WA,98101,DOWNTOWN,47.60972214,-122.33361053,1/1/1930,310000,1,21,0,61,103.6999969482,214.1000061035,2424.1000976563,0.0078196777
402,NonResidential,Office,US BANK CENTRE,1420 5TH AVE,SEATTLE,WA,98101,DOWNTOWN,47.61047982,-122.3345417,1/1/1989,1091151,1,46,0,90,51.2000007629,154.6999969482,4855.3999023438,0.0044497965
403,NonResidential,Office,LOGAN BUILDING,500 UNION ST,SEATTLE,WA,98101,DOWNTOWN,47.61002482,-122.3345291,1/1/1958,137396,1,10,0,86,50.4000015259,126.6999969482,528.9000244141,0.0038494572
404,NonResidential,Retail Store,O'SHEA BUILDING/GAP,1524 5TH AVE,SEATTLE,WA,98101,DOWNTOWN,47.61144362,-122.3362264,1/1/1914,65417,1,4,0,27,86.8000030518,272.700012207,505.3999938965,0.0077258204
405,NonResidential,Office,DECATUR BUILDING,1511 6TH AVE,SEATTLE,WA,98101,DOWNTOWN,47.61151197,-122.3352453,1/1/1921,119446,1,4,0,70,63.9000015259,174.8000030518,642.4000244141,0.0053781627
406,NonResidential,Office,520 PIKE BUILDING,520 PIKE ST,SEATTLE,WA,98101,DOWNTOWN,47.61123657,-122.33499146,1/1/1983,425829,1,29,0,89,45,141.1999969482,1703.6999511719,0.0040009017
408,NonResidential,Office,FOURTH & PIKE BUILDING,1424 4TH AVE,SEATTLE,WA,98101,DOWNTOWN,47.6101265,-122.33613586,1/1/1926,114451,0,10,0,65,58.2000007629,176.6000061035,584.5,0.005106989
409,NonResidential,Office,WASHINGTON FEDERAL BUILDING,425 PIKE ST,SEATTLE,WA,98101,DOWNTOWN,47.61030844,-122.3356898,1/1/1984,88485,1,6,0,40,84.3000030518,264.6000061035,663.299987793,0.0074961857
410,NonResidential,Hotel,MOTIF SEATTLE,1414 4TH AVE,SEATTLE,WA,98101,DOWNTOWN,47.60984368,-122.335888,1/1/1973,332067,0,19,0,8,106.5999984741,244.6000061035,2761.8999023438,0.0083172971
411,NonResidential,Office,JOSHUA GREEN BUILDING,1425 4TH AVE,SEATTLE,WA,98101,DOWNTOWN,47.60985565,-122.33682251,1/1/1910,130513,1,10,0,49,84.5999984741,204.3999938965,850.299987793,0.0065150597
412,NonResidential,Office,MIKEN BLDG.,1417 4TH AVE,SEATTLE,WA,98101,DOWNTOWN,47.60950851,-122.33650208,1/1/1920,46758,1,8,0,35,61.5,193.1999969482,255.8999938965,0.0054728601
413,NonResidential,Office,VANCE BUILDING & STERLING BLDG.,1402 3RD AVE,SEATTLE,WA,98101,DOWNTOWN,47.60919189,-122.33681488,1/1/1929,124508,1,14,0,89,52.7999992371,129.1000061035,531.799987793,0.0042712114
414,NonResidential,Office,1411 BUILDING,1411 4TH AVE,SEATTLE,WA,98101,DOWNTOWN,47.60930252,-122.33631134,1/1/1929,138548,1,15,0,84,52.2000007629,121.5999984741,574.799987793,0.0041487426
415,NonResidential,Office,CENTURY SQUARE,1501 4TH AVE,SEATTLE,WA,98101,DOWNTOWN,47.61046458,-122.3376779,1/1/1985,668753,1,30,0,72,75.5,208.6000061035,4168.7001953125,0.0062335424
416,NonResidential,Office,CHROMER BUILDING,1516 2ND AVE,SEATTLE,WA,98101,DOWNTOWN,47.60978885,-122.3388932,1/1/1906,56747,1,4,0,57,70.5,185.3999938965,320.799987793,0.0056531621
417,NonResidential,Office,MELBOURNE TOWER OFF,1511 3RD AVE,SEATTLE,WA,98101,DOWNTOWN,47.60982895,-122.33834076,1/1/1927,121746,1,10,0,72,61.7999992371,194.1000061035,669.4000244141,0.0054983328
418,NonResidential,Mixed Use Property,POLL BUILDING,110 UNION ST,SEATTLE,WA,98101,DOWNTOWN,47.60831726,-122.3390881,1/1/1910,79920,1,5,0,,36.5999984741,114.8000030518,259.8999938965,0.0032520019
419,Campus,Mixed Use Property,MAIN MARKET,1501 PIKE PL,SEATTLE,WA,98101,DOWNTOWN,47.60876917,-122.3411538,1/1/1908,121685,1,4,0,,114.0999984741,358.299987793,1563,0.0128446398
420,NonResidential,Parking,MERIDIAN CENTER WEST,1500 6TH AVE,SEATTLE,WA,98101,DOWNTOWN,47.61178469,-122.3346004,1/1/1996,61423,1,6,0,,133.6000061035,337.700012207,643.799987793,0.0104814156
421,NonResidential,Parking,MERIDIAN CENTER EAST,614 PIKE ST,SEATTLE,WA,98101,DOWNTOWN,47.61197207,-122.3341322,1/1/1996,100375,0,4,0,,79.9000015259,206.1999969482,617.5,0.0061519303
422,NonResidential,Office,TWO UNION SQUARE,601 UNION ST,SEATTLE,WA,98101,DOWNTOWN,47.61001362,-122.3323936,1/1/1989,1345219,1,56,0,97,35.9000015259,108,4195.5,0.003118823
423,NonResidential,Office,ONE UNION SQUARE,600 UNIVERSITY ST,SEATTLE,WA,98101,DOWNTOWN,47.60964966,-122.33229065,1/1/1980,757986,1,36,0,97,33.5999984741,103.5999984741,2241.5,0.0029571786
424,NonResidential,Office,PARK PLACE OFFICE BLDG,1200 6TH AVE,SEATTLE,WA,98101,DOWNTOWN,47.6090932,-122.3320105,1/1/1971,351074,1,21,0,79,53.2000007629,167,1735,0.004941978
425,NonResidential,Office,L&B CIP FIRST & STEWART LLC,101 STEWART ST,SEATTLE,WA,98101,DOWNTOWN,47.61022844,-122.3408168,1/1/1986,105316,1,12,0,73,52.7999992371,165.8999938965,495.1000061035,0.0047010901
426,NonResidential,Office,WORLD TRADE CENTER-WEST,2200 ALASKAN WAY,SEATTLE,WA,98121,DOWNTOWN,47.61123119,-122.3477109,1/1/1999,71762,1,4,0,82,54.7000007629,171.8000030518,349.299987793,0.0048674784
427,NonResidential,Office,WORLD TRADE CENTER-EAST,2211 ELLIOTT AVE,SEATTLE,WA,98121,DOWNTOWN,47.61160526,-122.3475713,1/1/1998,192798,1,11,0,77,61.9000015259,194.1999969482,1060.9000244141,0.0055026506
428,NonResidential,Other,CENTURYLINK: LENORA MAIN,120 LENORA ST,SEATTLE,WA,98121,DOWNTOWN,47.61204042,-122.34370306,1/1/1985,146689,1,12,0,,100.5,315.3999938965,1310.9000244141,0.0089365939
429,NonResidential,Office,TERMINAL SALES OFFICE BUILDING,1932 1ST AVE,SEATTLE,WA,98101,DOWNTOWN,47.611129,-122.342117,1/1/1923,101379,1,11,0,97,46.2000007629,90.5,352.299987793,0.0034750785
430,NonResidential,Office,MARSHALL BUILDING/DAHLIA LOUNGE,2013 4TH AVE,SEATTLE,WA,98121,DOWNTOWN,47.61302608,-122.3405801,1/1/1925,51840,1,4,0,77,52.5,135.3999938965,216,0.0041666667
432,Campus,Mixed Use Property,SECURITIES & MARKET BUILDING CAMPUS,1904 3RD AVE,SEATTLE,WA,98101,DOWNTOWN,47.612129,-122.339447,1/1/1913,268832,3,10,0,,89,254.8999938965,2051.1000976563,0.0076296724
433,NonResidential,Retail Store,MACY'S DOWNTOWN,300 PINE ST,SEATTLE,WA,98101,DOWNTOWN,47.61148031,-122.3386049,1/1/1929,861702,1,8,0,97,19.2999992371,60.2000007629,1474.5999755859,0.0017112644
434,NonResidential,Other,VIRGINIA MASON - BENAROYA RESEARCH INSTITUTE,1201 9TH AVE,SEATTLE,WA,98101,EAST,47.60999671,-122.3292516,1/1/1999,206950,1,5,0,,94.9000015259,283.200012207,1712,0.0082725296
435,NonResidential,Convention Center,WASHINGTON STATE CONVENTION CENTER,800 CONVENTION PL,SEATTLE,WA,98101,DOWNTOWN,47.61158623,-122.3316006,1/1/1990,1072000,1,6,0,,72,192.5,6426.8999023438,0.0059952424
436,NonResidential,Urgent Care/Clinic/Other Outpatient,VIRGINIA MASON- HEALTH RESOURCES BUILDING,909 UNIVERSITY ST,SEATTLE,WA,98101,EAST,47.6104434,-122.3284162,1/1/1988,46710,1,9,0,,91.0999984741,225.1999969482,345.5,0.0073967031
437,NonResidential,Medical Office,VIRGINIA MASON- LINDEMAN PAVILION,1201 TERRY AVE,SEATTLE,WA,98101,EAST,47.6104434,-122.3284162,1/1/1945,162000,1,3,0,59,89.3000030518,250.3999938965,1212.1999511719,0.0074827157
438,NonResidential,Medical Office,1101 MADISON TOWER,1101 MADISON ST,SEATTLE,WA,98104,EAST,47.60921478,-122.3242569,1/1/1992,270384,1,14,0,65,72.1999969482,226.6999969482,1736.4000244141,0.0064219777
439,NonResidential,Mixed Use Property,FISHER PLAZA - EAST BUILDING KOMO-TV STUDIOS,100 4TH AVE N,SEATTLE,WA,98109,LAKE UNION,47.61932082,-122.3481439,1/1/2001,194095,1,6,0,100,295.8999938965,911.9000244141,5052.5,0.0260310673
440,NonResidential,Mixed Use Property,FISHER PLAZA - WEST BUILDING,100 4TH AVE N,SEATTLE,WA,98109,LAKE UNION,47.61892137,-122.3485738,1/1/2001,106143,1,6,0,100,800.5999755859,2511.1000976563,7555,0.0711775623
441,NonResidential,Hotel,BEST WESTERN EXECUTIVE INN - SEATTLE,200 TAYLOR AVE N,SEATTLE,WA,98109,LAKE UNION,47.62040582,-122.3459128,1/1/1979,109017,1,5,0,27,91.9000015259,213.6000061035,751.0999755859,0.0068897509
442,NonResidential,Office,KING BROADCASTING,333 DEXTER AVE N,SEATTLE,WA,98109,LAKE UNION,47.6214758,-122.3430502,1/1/1947,158364,1,4,0,59,105.8000030518,332.299987793,1491.0999755859,0.0094156499
443,NonResidential,Office,ELLIOTT BAY OFFICE PARK,300 ELLIOTT AVE W,SEATTLE,WA,98119,MAGNOLIA / QUEEN ANNE,47.62168398,-122.3612421,1/1/1981,231163,1,5,0,67,83.6999969482,262.799987793,1721,0.0074449631
444,NonResidential,Non-Refrigerated Warehouse,FEDEX VAN TERMINAL,651 S ALASKA ST,SEATTLE,WA,98108,GREATER DUWAMISH,47.56077194,-122.32500458,1/1/2001,123061,1,1,0,61,15.5,48.7999992371,170.1999969482,0.0013830539
446,NonResidential,Distribution Center,WASHINGTON STATE FERRIES,6000 6TH AVE S,SEATTLE,WA,98108,GREATER DUWAMISH,47.54865557,-122.3253303,1/1/1963,59090,1,1,0,36,51.4000015259,76,183.6999969482,0.003108817
447,NonResidential,Non-Refrigerated Warehouse,GTE SYLVANIA,750 S MICHIGAN ST,SEATTLE,WA,98108,GREATER DUWAMISH,47.5468909,-122.3239962,1/1/1963,106001,1,1,0,74,12.8000001907,40.2000007629,120.8000030518,0.0011396119
449,NonResidential,Office,1551 EASTLAKE BLDG.,1551 EASTLAKE AVE E,SEATTLE,WA,98102,LAKE UNION,47.633493,-122.3263524,1/1/1962,145779,1,3,0,25,114.0999984741,335.200012207,1421.9000244141,0.0097538056
451,NonResidential,Distribution Center,FRYE DISTRIBUTION CENTER,660 S OTHELLO ST,SEATTLE,WA,98108,GREATER DUWAMISH,47.53766891,-122.3241408,1/1/1960,118733,1,1,0,98,5.3000001907,16.5,55.4000015259,0.0004665931
452,NonResidential,Office,1144 EASTLAKE BUILDING,1144 EASTLAKE AVE E,SEATTLE,WA,98109,LAKE UNION,47.62973404,-122.32804871,1/1/2001,82098,1,7,0,74,59,185.1999969482,430.799987793,0.0052473871
453,NonResidential,Office,701 DEXTER BUILDING,701 DEXTER AVE N,SEATTLE,WA,98109,MAGNOLIA / QUEEN ANNE,47.62563138,-122.3428953,1/1/1984,95721,1,6,0,95,32,100.5999984741,272.799987793,0.0028499492
456,NonResidential,Office,1100 DEXTER,1100 DEXTER AVE N,SEATTLE,WA,98109,MAGNOLIA / QUEEN ANNE,47.62912762,-122.3419415,1/1/1996,105563,1,5,0,76,60.5,190,568.299987793,0.0053835149
457,NonResidential,Office,1441 LAKE UNION CENTER,1441 N 34TH ST,SEATTLE,WA,98103,LAKE UNION,47.6477973,-122.3392645,1/1/2001,63199,1,3,0,1,242.5,535.5999755859,1118.5,0.0176980648
458,NonResidential,Office,NORTHGATE EXECUTIVE CENTER B,155 NE 100TH ST,SEATTLE,WA,98125,NORTH,47.7007902,-122.3272232,1/1/1974,71751,1,5,0,68,61.7000007629,193.8000030518,394,0.0054912127
459,NonResidential,Office,NORTHGATE EXECUTIVE CENTER C,9725 3RD AVE NE,SEATTLE,WA,98115,NORTH,47.70006313,-122.326753,1/1/1979,85339,1,6,0,52,71,222.8999938965,538.9000244141,0.0063148153
460,NonResidential,Office,NORTHGATE PLAZA,9709 3RD AVE NE,SEATTLE,WA,98115,NORTH,47.69917313,-122.3268871,1/1/1983,127389,1,5,0,91,47.2999992371,148.3999938965,535.700012207,0.0042052297
461,NonResidential,Office,NORTHGATE OFFICE BUILDING,9750 3RD AVE NE,SEATTLE,WA,98115,NORTH,47.70057856,-122.3249321,1/1/1979,53730,1,4,0,18,90.0999984741,283.1000061035,430.8999938965,0.0080197282
462,NonResidential,Office,DELRIDGE BUILDING,4045 DELRIDGE WAY SW,SEATTLE,WA,98106,DELRIDGE NEIGHBORHOODS,47.56710229,-122.364164,1/1/1960,55593,1,3,0,57,73.6999969482,182.6999969482,318.200012207,0.0057237424
463,NonResidential,Office,425 PONTIUS (WRIGHT SCHUCHART BUILDING),425 PONTIUS AVE N,SEATTLE,WA,98109,LAKE UNION,47.62278141,-122.3320697,1/1/1982,72066,1,4,0,55,64.6999969482,203.1999969482,415,0.0057586102
464,NonResidential,Retail Store,COSTCO 4TH AVE S,4401 4TH AVE S,SEATTLE,WA,98134,GREATER DUWAMISH,47.56538887,-122.3303087,1/1/2005,158415,1,1,0,23,147.5,374,1836.4000244141,0.0115923367
465,NonResidential,Office,1000 DENNY WAY BUILDING,1000 DENNY WAY,SEATTLE,WA,98109,LAKE UNION,47.61898067,-122.3364401,1/1/1929,275055,1,8,0,,178.5,559.0999755859,4361.6000976563,0.0158571926
466,NonResidential,Urgent Care/Clinic/Other Outpatient,VIRGINIA MASON - BUCK PAVILLON,1100 9TH AVE,SEATTLE,WA,98101,EAST,47.610416,-122.326568,1/1/1975,158738,1,8,0,,420.3999938965,1112.9000244141,5439.2001953125,0.0342652685
467,NonResidential,Retail Store,FRED MEYER BALLARD,915 NW 45TH ST,SEATTLE,WA,98107,BALLARD,47.66047823,-122.3676329,1/1/1999,74102,1,1,0,61,105.4000015259,280.8999938965,1505.4000244141,0.0203152415
468,NonResidential,Office,INTERURBAN EXCHANGE II,535 TERRY AVE N,SEATTLE,WA,98109,LAKE UNION,47.62410578,-122.3375262,1/1/2009,119611,1,5,0,95,48.7000007629,152.6000061035,517.4000244141,0.0043256893
469,NonResidential,Other,ROSEN BUILDING,960 REPUBLICAN ST,SEATTLE,WA,98109,LAKE UNION,47.62346456,-122.3375308,1/1/1928,55200,1,3,0,,209.5,515.5,894.0999755859,0.0161974633
470,NonResidential,Laboratory,401 TERRY AVE (INSTITUTE FOR SYSTEM BIOLOGY),401 TERRY AVE N,SEATTLE,WA,98109,LAKE UNION,47.62262099,-122.3375121,1/1/2003,176171,1,4,0,,228.1000061035,539.4000244141,3040.6000976563,0.0172593679
471,NonResidential,Office,428 WESTLAKE BUILDING,428 WESTLAKE AVE N,SEATTLE,WA,98109,LAKE UNION,47.62262623,-122.338058,1/1/2004,86700,1,6,0,82,54,169.5,416.299987793,0.0048016146
473,NonResidential,Office,CITY PLACE II,500 BOREN AVE N,SEATTLE,WA,98109,LAKE UNION,47.62385941,-122.33546448,1/1/2009,184994,1,5,0,96,42.7000007629,132.5,697.9000244141,0.0037725549
474,NonResidential,Non-Refrigerated Warehouse,SHURGARD CORPORATE HEADQUARTERS AND MINI-STORAGE,700 FAIRVIEW AVE N,SEATTLE,WA,98109,LAKE UNION,47.62531851,-122.3334149,1/1/1914,127800,1,5,0,51,23.8999996185,69.4000015259,259.6000061035,0.002031299
475,NonResidential,Office,FHCRC - ARNOLD BLDG,1100 FAIRVIEW AVE N,SEATTLE,WA,98109,LAKE UNION,47.62726846,-122.3315762,1/1/2002,372503,1,5,0,69,82.1999969482,208.1999969482,2405.5,0.0064576661
476,NonResidential,Office,FHCRC - YALE BLDG,823 YALE AVE N,SEATTLE,WA,98109,LAKE UNION,47.62622137,-122.3314394,1/1/2001,131592,1,6,0,50,89.4000015259,279.700012207,1044.6999511719,0.0079389321
477,Campus,Other,FHCRC - Weintraub/Hutchinson/Thomas Bldgs Campus,1100 FAIRVIEW AVE N,SEATTLE,WA,98109,LAKE UNION,47.6286355,-122.3306365,1/1/1997,535947,1,5,0,,253.3999938965,535.0999755859,9686,0.0180726826
480,NonResidential,Mixed Use Property,SEATTLE BIOMEDICAL BUILDING,307 WESTLAKE AVE N,SEATTLE,WA,98109,LAKE UNION,47.62137417,-122.3388409,1/1/2003,116020,1,5,0,,233.6999969482,586.9000244141,2120,0.0182727116
481,NonResidential,Office,WESTLAKE TERRY - EAST BLDG,321 TERRY AVE N,SEATTLE,WA,98109,LAKE UNION,47.62145233,-122.33753204,1/1/2006,135755,1,4,0,95,54.4000015259,145.1999969482,597.299987793,0.0043998379
482,NonResidential,Office,WESTLAKE TERRY WEST BLDG,320 WESTLAKE AVE N,SEATTLE,WA,98109,LAKE UNION,47.62145615,-122.33805847,1/1/2006,184643,1,6,0,94,47.0999984741,144.1000061035,761.5999755859,0.0041247162
484,NonResidential,Mixed Use Property,FRED ROGERS BLDG-SEATTLE OPERA,1020 JOHN ST,SEATTLE,WA,98109,LAKE UNION,47.62026229,-122.3368035,1/1/1954,65782,1,3,0,65,40.4000015259,93.5999984741,198.8000030518,0.0030221034
487,NonResidential,Laboratory,Brotman Building D,801 MERCER ST,SEATTLE,WA,98109,LAKE UNION,47.62452073,-122.33990438,1/1/1963,102235,1,4,0,,247.3999938965,583.299987793,1910.8000488281,0.0186902729
488,NonResidential,Mixed Use Property,UW MEDICINE-LK UNION PHASE II & III,815 MERCER ST,SEATTLE,WA,98109,LAKE UNION,47.623959,-122.3405267,1/1/2008,287956,1,5,0,,144,372.200012207,3294.5,0.011440984
489,NonResidential,Office,200 WEST THOMAS BUILDING,200 W THOMAS ST,SEATTLE,WA,98119,MAGNOLIA / QUEEN ANNE,47.62122551,-122.359728,1/1/1974,67242,1,5,0,81,49.2999992371,154.8999938965,295.1000061035,0.0043886262
490,NonResidential,Office,NORTH TOWER,100 W HARRISON ST,SEATTLE,WA,98119,MAGNOLIA / QUEEN ANNE,47.62302024,-122.3584104,1/1/1972,68521,1,5,0,71,53.9000015259,169.3000030518,328.6000061035,0.0047956102
491,NonResidential,Office,SOUTH TOWER,100 W HARRISON ST,SEATTLE,WA,98119,MAGNOLIA / QUEEN ANNE,47.622376,-122.358404,1/1/1970,69940,1,5,0,86,51.4000015259,161.3999938965,319.799987793,0.0045724905
492,NonResidential,Office,QUEEN ANNE PLAZA,201 QUEEN ANNE AVE N,SEATTLE,WA,98109,MAGNOLIA / QUEEN ANNE,47.62002316,-122.3571354,1/1/1985,58195,1,4,0,78,54.2999992371,170.3999938965,281,0.0048285935
493,NonResidential,Office,FIRST WEST BUILDING,200 1ST AVE W,SEATTLE,WA,98119,MAGNOLIA / QUEEN ANNE,47.62011334,-122.3576936,1/1/1971,71090,1,5,0,77,44.0999984741,138.3999938965,278.700012207,0.0039203828
494,NonResidential,Medical Office,4225 ROOSEVELT BLDG- U OF W MED. CENTER,4225 ROOSEVELT WAY NE,SEATTLE,WA,98105,NORTHEAST,47.65821313,-122.3183146,1/1/1988,108344,1,4,0,6,177.6000061035,407.3999938965,1432.5,0.0132217751
495,NonResidential,Medical Office,4245 ROOSEVELT - UW MEDICAL CENTER,4245 ROOSEVELT WAY NE,SEATTLE,WA,98105,NORTHEAST,47.65884177,-122.3182756,1/1/1994,95995,1,4,0,16,97.1999969482,295.700012207,814.4000244141,0.0084837755
496,NonResidential,Self-Storage Facility,TRIAD BALLARD DEVELOPMENT,2801 NW MARKET ST,SEATTLE,WA,98107,BALLARD,47.66813102,-122.3941507,1/1/1946,119095,1,2,0,,44.7000007629,98.3000030518,387.3999938965,0.0032528653
497,NonResidential,Non-Refrigerated Warehouse,SHURGARD STORAGE,2964 SW AVALON WAY,SEATTLE,WA,98126,SOUTHWEST,47.56885038,-122.3712309,1/1/1997,98475,1,4,0,81,11,28.2000007629,85.5999984741,0.0008692561
498,NonResidential,Hospital (General Medical & Surgical),FHCRC - SEATTLE CANCER CARE ALLIANCE CLINIC,825 EASTLAKE AVE E,SEATTLE,WA,98109,LAKE UNION,47.62652206,-122.32956696,1/1/2000,215602,1,7,0,18,215.1999969482,495.1000061035,3459.8000488281,0.0160471612
499,NonResidential,Office,ASIAN COUNSELING and REFERRAL SERVICE BUILDING,3639 MARTIN LUTHER KING JR WAY S,SEATTLE,WA,98144,GREATER DUWAMISH,47.57089656,-122.2974118,1/1/2008,55188,1,3,0,76,81.0999984741,169.8000030518,317.8999938965,0.0057603101
500,NonResidential,Retail Store,FRED MEYER,13000 LAKE CITY WAY NE,SEATTLE,WA,98125,NORTH,47.7240537,-122.2920529,1/1/1995,56651,1,2,0,57,114.4000015259,291.8999938965,1150.0999755859,0.0203014947
503,NonResidential,Supermarket/Grocery Store,RESTAURANT DEPOT,3670 E MARGINAL WAY S,SEATTLE,WA,98134,GREATER DUWAMISH,47.56886018,-122.3377912,1/1/2008,63225,1,1,0,100,104.6999969482,328.799987793,588.9000244141,0.0093143539
504,Nonresidential COS,Other - Services,WESTBRIDGE BUILDING - SEATTLE PARKS DEPT,4201 W MARGINAL WAY SW,SEATTLE,WA,98106,DELRIDGE NEIGHBORHOODS,47.56561534,-122.3540283,1/1/1955,113780,0,1,0,,31.5,60.0999984741,243,0.0021357005
507,NonResidential,Non-Refrigerated Warehouse,Skyline-East Marginal WAREHOUSE,4401 E MARGINAL WAY S,SEATTLE,WA,98134,GREATER DUWAMISH,47.56376232,-122.3423613,1/1/1999,325424,1,1,0,99,9,15.8000001907,164.3000030518,0.0005048798
508,NonResidential,Parking,THE PARKVIEW BUILDING,601 N 34TH ST,SEATTLE,WA,98103,LAKE UNION,47.64929601,-122.350499,1/1/2001,123940,1,3,0,,98.4000015259,309,1085.0999755859,0.0087550426
513,NonResidential,Office,KCPQ,1813 WESTLAKE AVE N,SEATTLE,WA,98109,MAGNOLIA / QUEEN ANNE,47.63548436,-122.3409248,1/1/1952,52664,1,3,0,,173,543.200012207,810.5,0.0153900197
514,NonResidential,Retail Store,LOWES,12525 AURORA AVE N,SEATTLE,WA,98133,NORTHWEST,47.72050908,-122.3473928,1/1/1997,107931,1,1,0,82,67.3000030518,196,617.700012207,0.005723101
515,NonResidential,Non-Refrigerated Warehouse,STORAGE USA SELF STORAGE,1430 N 130TH ST,SEATTLE,WA,98133,NORTHWEST,47.72385371,-122.3407784,1/1/1999,67155,1,3,1,34,13.1999998093,35.5999984741,72.0999984741,0.0010736356
516,NonResidential,Strip Mall,AURORA SHOPPING CENTER,13201 AURORA AVE N,SEATTLE,WA,98133,NORTHWEST,47.72548938,-122.3469881,1/1/1964,124231,6,1,0,,93.0999984741,241.3000030518,920.299987793,0.0074079738
517,NonResidential,Wholesale Club/Supercenter,SAM'S CLUB,13550 AURORA AVE N,SEATTLE,WA,98133,NORTHWEST,47.72842333,-122.3444389,1/1/1984,144776,0,1,0,57,90.8000030518,241.6999969482,1061.6999511719,0.0073333975
518,NonResidential,Retail Store,AURORA ACRES BUILDING (RETAIL PLAZA),13200 AURORA AVE N,SEATTLE,WA,98133,NORTHWEST,47.72545915,-122.3425529,1/1/1967,114117,1,1,0,96,100.9000015259,219.5,833.700012207,0.0073056601
519,NonResidential,Supermarket/Grocery Store,ALBERTSON'S STORE 410,13050 AURORA AVE N,SEATTLE,WA,98133,NORTHWEST,47.72465497,-122.34491274,1/1/1997,50065,1,1,0,78,172,454.5,692.5999755859,0.0138340153
520,NonResidential,Office,THE BURKE BLDG,400 N 34TH ST,SEATTLE,WA,98103,LAKE UNION,47.65060893,-122.3530578,1/1/1988,96504,1,3,0,77,49.0999984741,154,421.200012207,0.0043645861
521,NonResidential,Office,THE EVANSTON BUILDING,501 N 34TH ST,SEATTLE,WA,98103,LAKE UNION,47.64970141,-122.3517949,1/1/2000,90000,1,4,0,82,45,141.1999969482,359.8999938965,0.0039988888
522,NonResidential,Office,THE  WATERSIDE BUILDING,651 N 34TH ST,SEATTLE,WA,98103,LAKE UNION,47.6487041,-122.3505842,1/1/2001,62232,1,3,0,69,87.9000015259,276.1000061035,486.799987793,0.007822342
523,NonResidential,Office,ADOBE BUILDING-801-N 34 ST.,801 N 34TH ST,SEATTLE,WA,98103,LAKE UNION,47.6481342,-122.3484595,1/1/1999,164961,1,3,0,95,73.6999969482,226.8999938965,1069,0.0064803196
524,NonResidential,Office,FREMONT LAKE UNION CENTER - PLAZA BLDG,701 N 34TH ST,SEATTLE,WA,98103,LAKE UNION,47.64884638,-122.348972,1/1/1999,138995,1,4,0,76,74.3000030518,224.8999938965,898.700012207,0.0064657003
525,NonResidential,Mixed Use Property,SEATTLE ART MUSEUM,1300 1ST AVE,SEATTLE,WA,98101,DOWNTOWN,47.60729218,-122.33785248,1/1/1991,253000,1,6,0,,221.1000061035,529.200012207,1410.0999755859,0.0055735177
526,NonResidential,Office,PLAZA BUILDING - SEATTLE DESIGN CENTER,5701 6TH AVE S,SEATTLE,WA,98108,GREATER DUWAMISH,47.55172357,-122.32697144,1/1/1982,243018,1,5,0,95,32.2999992371,101.3000030518,697.4000244141,0.0028697464
527,NonResidential,Non-Refrigerated Warehouse,NORTHWEST CORPORATE PARK DISTRIBUTION WAREHOUSE,5900 4TH AVE S,SEATTLE,WA,98108,GREATER DUWAMISH,47.54988981,-122.3286358,1/1/1967,90000,1,2,0,89,14.1000003815,41.2000007629,108.3000030518,0.0012033334
528,NonResidential,Other,OREGON TILE AND MARBLE,5930 6TH AVE S,SEATTLE,WA,98108,GREATER DUWAMISH,47.55030549,-122.3260997,1/1/1966,50200,1,1,0,,19.7000007629,43.0999984741,71.8000030518,0.0014302789
529,NonResidential,Office,BALLARD BUILDING,2208 NW MARKET ST,SEATTLE,WA,98107,BALLARD,47.66897964,-122.38531494,1/1/1925,84017,1,6,0,,56.7000007629,132,357.6000061035,0.0042562815
530,NonResidential,Non-Refrigerated Warehouse,MAGNUM SELF STORAGE,5422 SHILSHOLE AVE NW,SEATTLE,WA,98107,BALLARD,47.66746426,-122.3856536,1/1/1941,63240,1,2,0,100,2.9000000954,6.0999999046,4.9000000954,7.7482607453628E-05
532,NonResidential,Parking,BALLARD BLOCKS,1416 NW 46TH ST,SEATTLE,WA,98107,BALLARD,47.66256332,-122.37516785,1/1/2008,130744,1,5,0,,129.3999938965,306.3999938965,1281.0999755859,0.0097985374
533,NonResidential,Self-Storage Facility,PUBLIC STORAGE MINI-STORAGE,3000 15TH AVE W,SEATTLE,WA,98119,MAGNOLIA / QUEEN ANNE,47.64716297,-122.3757914,1/1/1988,130293,1,4,0,,3.9000000954,12.1999998093,45,0.0003453754
534,NonResidential,Non-Refrigerated Warehouse,BOLT MODERN STORAGE QA,1300 W NICKERSON ST,SEATTLE,WA,98119,MAGNOLIA / QUEEN ANNE,47.65563392,-122.3747028,1/1/1997,106041,1,4,0,93,10.5,26.2999992371,87,0.0008204374
536,NonResidential,Self-Storage Facility,MAGNOLIA SELF STORAGE,1900 15TH AVE W,SEATTLE,WA,98119,MAGNOLIA / QUEEN ANNE,47.63631236,-122.3754702,1/1/1956,94470,1,3,0,,9.8000001907,19.3999996185,63.7999992371,0.0006753467
538,NonResidential,Office,5TH & JACKSON BUILDING,315 5TH AVE S,SEATTLE,WA,98104,DOWNTOWN,47.59964099,-122.3279455,1/1/2002,155519,1,10,0,86,51.9000015259,162.8999938965,718,0.0046167992
539,NonResidential,Retail Store,UNIVERSITY CENTER,4500 9TH AVE NE,SEATTLE,WA,98105,NORTHEAST,47.66172585,-122.3179607,1/1/1987,69800,1,2,0,100,5.9000000954,18.3999996185,36.2999992371,0.0005200573
540,NonResidential,Non-Refrigerated Warehouse,NWCP BLDG K,6136 6TH AVE S,SEATTLE,WA,98108,GREATER DUWAMISH,47.54728272,-122.325775,1/1/1966,22780,1,1,0,30,18.7999992371,59,38,0.0016681299
543,NonResidential,Distribution Center,SEATTLE DISTRIBUTION CENTER BLDG 1,6701 E MARGINAL WAY S,SEATTLE,WA,98108,GREATER DUWAMISH,47.54218643,-122.329036,1/1/1967,124423,1,1,0,92,19.7000007629,32.9000015259,156.5,0.001257806
544,NonResidential,Distribution Center,SEATTLE DISTRIBUTION CENTER BLDG 2,6755 E MARGINAL WAY S,SEATTLE,WA,98108,GREATER DUWAMISH,47.54218643,-122.329036,1/1/1967,49918,1,1,0,71,29.3999996185,65.6999969482,107.6999969482,0.0021575383
545,NonResidential,Distribution Center,GLACIER NORTHWEST,6335 1ST AVE S,SEATTLE,WA,98134,GREATER DUWAMISH,47.54621444,-122.334819,1/1/1969,57540,1,1,0,29,32.7000007629,89.1999969482,154,0.002676399
546,NonResidential,Non-Refrigerated Warehouse,NW CORPORATE PARK,410 S FRONT ST,SEATTLE,WA,98108,GREATER DUWAMISH,47.54851596,-122.3276771,1/1/1966,85400,1,1,0,47,18.7000007629,58.5999984741,141.6999969482,0.0016592505
547,NonResidential,Non-Refrigerated Warehouse,NW CORPORATE PARK,6001 6TH AVE S,SEATTLE,WA,98108,GREATER DUWAMISH,47.54851596,-122.3276771,1/1/1966,55700,1,1,0,62,9.6000003815,30.1000003815,47.4000015259,0.0008509875
548,NonResidential,Office,RESOURCE CENTER,5933 6TH AVE S,SEATTLE,WA,98108,GREATER DUWAMISH,47.54966924,-122.3276807,1/1/1964,52759,1,1,0,92,41.5999984741,88.3000030518,157,0.0029757956
549,NonResidential,Office,400 MERCER STREET OFFICE BUILDING,400 MERCER ST,SEATTLE,WA,98109,MAGNOLIA / QUEEN ANNE,47.62483876,-122.3485262,1/1/1987,78672,1,6,0,95,34.5,94.5,222.8000030518,0.0028320114
550,NonResidential,Non-Refrigerated Warehouse,PUBLIC STORAGE,11512 AURORA AVE N,SEATTLE,WA,98133,NORTHWEST,47.71285067,-122.3442059,1/1/1986,64660,1,3,1,88,5.3000001907,13.6000003815,27,0.0004175688
551,NonResidential,Mixed Use Property,RICHMARK PRINTING,1110 E PINE ST,SEATTLE,WA,98122,EAST,47.6156585,-122.3174495,1/1/1927,56883,1,2,0,,63.9000015259,192.3999938965,315.3999938965,0.0055447145
552,NonResidential,Distribution Center,SOUTH SEATTLE DISTRIBUTION CENTER- 3800,3800 1ST AVE S,SEATTLE,WA,98134,GREATER DUWAMISH,47.57009819,-122.333388,1/1/1968,174227,1,1,0,27,53.0999984741,132.8999938965,721.5999755859,0.004141723
553,NonResidential,Distribution Center,SOUTH SEATTLE DISTRIBUTION CENTER- 3844,3844 1ST AVE S,SEATTLE,WA,98134,GREATER DUWAMISH,47.56875906,-122.33309,1/1/1949,101101,1,1,0,1,233.6000061035,732.5,2099.3000488281,0.0207643846
554,NonResidential,Distribution Center,SOUTH SEATTLE DISTRIBUTION CENTER- 3601,3601 2ND AVE S,SEATTLE,WA,98134,GREATER DUWAMISH,47.57021636,-122.332386,1/1/1980,52613,1,1,0,77,18.8999996185,40.2000007629,71.0999984741,0.001351377
555,NonResidential,Other,CASCADE DESIGNS INC,4000 1ST AVE S,SEATTLE,WA,98134,GREATER DUWAMISH,47.56784433,-122.3336582,1/1/1940,56860,1,1,0,,92.0999984741,259.299987793,436.6000061035,0.0076785087
556,NonResidential,Refrigerated Warehouse,SEATTLE PRODUCE TERMINAL (CHARLIE'S),4103 2ND AVE S,SEATTLE,WA,98134,GREATER DUWAMISH,47.56652481,-122.3327126,1/1/1953,104099,1,1,0,,170.1999969482,524.700012207,1558.8000488281,0.0149742077
557,NonResidential,Supermarket/Grocery Store,SAFEWAY STORE # 1845 (FORMERLY 3389),8704 GREENWOOD AVE N,SEATTLE,WA,98103,NORTHWEST,47.69270472,-122.3550623,1/1/2003,51722,1,1,0,48,269.200012207,599.9000244141,1021,0.0197401493
558,NonResidential,Supermarket/Grocery Store,Q.F.C. & DOLLAR STORE,1531 NE 145TH ST,SHORELINE,WA,98155,NORTH,47.73314624,-122.3105194,1/1/1980,44431,1,1,0,39,262,570.700012207,843.5,0.0189844928
559,NonResidential,Office,YALE & THOMAS,325 EASTLAKE AVE E,SEATTLE,WA,98109,LAKE UNION,47.6212428,-122.3297865,1/1/1981,186977,1,4,0,86,67.6999969482,179.1000061035,1018.799987793,0.0054487985
560,NonResidential,Non-Refrigerated Warehouse,EVERGREEN WHLSLE FLORIST,1255 HARRISON ST,SEATTLE,WA,98109,LAKE UNION,47.62145274,-122.3311285,1/1/1955,66968,1,1,0,1,23.5,73.8000030518,140.1000061035,0.0020920441
561,NonResidential,Office,ALLEY 24 EAST,209 YALE AVE N,SEATTLE,WA,98109,LAKE UNION,47.61985503,-122.33048111,1/1/2005,217977,1,6,0,96,44.5,139.6999969482,862.799987793,0.0039582157
562,NonResidential,Retail Store,REI - SEATTLE,222 YALE AVE N,SEATTLE,WA,98109,LAKE UNION,47.62035862,-122.3297037,1/1/1996,98863,1,4,0,40,101.4000015259,265.799987793,802.4000244141,0.0081162824
563,NonResidential,Office,1130 BUILDING,1130 RAINIER AVE S,SEATTLE,WA,98144,CENTRAL,47.59283131,-122.3087491,1/1/1914,62000,1,2,0,33,86.6999969482,271.799987793,477.799987793,0.0077064514
564,NonResidential,Office,900 POPLAR BUILDING,900 POPLAR PL S,SEATTLE,WA,98144,GREATER DUWAMISH,47.59364401,-122.3109277,1/1/1970,68874,1,1,0,92,41.5,92.9000015259,209.8999938965,0.0030475941
565,NonResidential,Office,NORTHCUT LANDING,4915 25TH AVE NE,SEATTLE,WA,98105,NORTHEAST,47.66514721,-122.3018094,1/1/2006,83715,1,3,0,28,70.6999969482,218.3999938965,521.299987793,0.0062270798
566,NonResidential,Other,CENTURYLINK: EAST CO,1708 E PIKE ST,SEATTLE,WA,98122,CENTRAL,47.61448142,-122.3098028,1/1/1926,74864,1,3,0,,190.6000061035,598.299987793,1269.0999755859,0.0169520728
568,NonResidential,Non-Refrigerated Warehouse,K2 and Iron Mountain (Seattle 4),4201 6TH AVE S,SEATTLE,WA,98108,GREATER DUWAMISH,47.56415346,-122.3275518,1/1/1991,323916,1,2,0,81,34.9000015259,69.4000015259,781.9000244141,0.0024138975
569,NonResidential,Mixed Use Property,PACIFIC TOWER,1200 12TH AVE S,SEATTLE,WA,98144,GREATER DUWAMISH,47.59282532,-122.3168305,1/1/1932,302481,1,14,0,96,52.4000015259,153.6000061035,1352.8000488281,0.0044723472
570,NonResidential,Office,NORTHWEST BLDG,2323 EASTLAKE AVE E,SEATTLE,WA,98102,LAKE UNION,47.64039142,-122.326242,1/1/1978,53110,1,4,0,77,92.4000015259,290,436.3999938965,0.0082169082
571,NonResidential,Distribution Center,NORTHWEST CENTER INDUSTRIES,7272 1ST AVE S,SEATTLE,WA,98108,GREATER DUWAMISH,47.53692799,-122.3326807,1/1/1989,97608,1,2,0,77,33.0999984741,81.4000015259,249.6000061035,0.0025571675
572,NonResidential,Mixed Use Property,BRIGHT HORIZONS,1275 MERCER ST,SEATTLE,WA,98109,LAKE UNION,47.62386402,-122.3308079,1/1/1928,30000,1,1,0,,78.6999969482,198.6000061035,185.1000061035,0.0061700002
573,NonResidential,Office,EASTLAKE & ROY - YALE CAMPUS,617 EASTLAKE AVE E,SEATTLE,WA,98109,LAKE UNION,47.62492806,-122.3297812,1/1/1990,78521,1,5,0,56,69.0999984741,216.8999938965,482.6000061035,0.0061461266
574,NonResidential,Retail Store,MACY'S - NORTHGATE,401 NE NORTHGATE WAY,SEATTLE,WA,98125,NORTH,47.70592963,-122.3257763,1/1/1950,302812,1,2,0,97,23.6000003815,64.0999984741,583.299987793,0.0019262777
575,NonResidential,Office,NORTHWAY SQUARE EAST,2150 N 107TH ST,SEATTLE,WA,98133,NORTHWEST,47.70744968,-122.3317136,1/1/1974,78200,1,5,0,57,107.5,221.1999969482,591.700012207,0.0075664963
576,NonResidential,Strip Mall,NORTHGATE VILLAGE RETAIL,818 NE NORTHGATE WAY,SEATTLE,WA,98125,SHARED: NORTH & NORTHWEST,47.7094017,-122.3203319,1/1/1969,98539,0,2,0,,58,178.3999938965,502,0.0050944296
577,NonResidential,Office,NORTHWAY WEST BUILDING,10700 MERIDIAN AVE N,SEATTLE,WA,98133,NORTHWEST,47.70732866,-122.3327728,1/1/1981,86483,1,6,0,50,78.5999984741,246.8000030518,604.5999755859,0.006990969
578,NonResidential,Distribution Center,PACIFIC PLUMBING SUPPLY,7115 W MARGINAL WAY SW,SEATTLE,WA,98106,DELRIDGE NEIGHBORHOODS,47.53914935,-122.341353,1/1/1976,51600,1,1,0,82,19.6000003815,48.9000015259,78.8000030518,0.0015271318
579,NonResidential,Non-Refrigerated Warehouse,JONES STEVEDORING,7245 W MARGINAL WAY SW,SEATTLE,WA,98106,DELRIDGE NEIGHBORHOODS,47.53627727,-122.3375131,1/1/1968,140520,1,1,0,73,12.3999996185,29.1000003815,131.1000061035,0.0009329633
580,NonResidential,Office,PEMCO,1300 DEXTER AVE N,SEATTLE,WA,98109,MAGNOLIA / QUEEN ANNE,47.63108155,-122.3419109,1/1/1986,91645,1,5,0,,20.6000003815,47.5,140.8999938965,0.0015374542
581,NonResidential,Parking,MERIDIAN MEDICAL PAVILION,11011 MERIDIAN AVE N,SEATTLE,WA,98133,NORTHWEST,47.7088653,-122.3346333,1/1/2005,69854,1,3,0,,100.5,315.6000061035,624.5999755859,0.0089415062
582,NonResidential,Medical Office,MCMURRAY MEDICAL BUILDING,1536 N 115TH ST,SEATTLE,WA,98133,NORTHWEST,47.71269972,-122.3376343,1/1/2005,63909,1,3,0,,68.8000030518,216.1000061035,391.200012207,0.0061212038
583,NonResidential,Non-Refrigerated Warehouse,IRON MOUNTAIN,1201 N 96TH ST,SEATTLE,WA,98103,NORTHWEST,47.69818968,-122.342898,1/1/1948,56879,1,2,0,,18.5,35.4000015259,71.4000015259,0.0012552964
584,NonResidential,Non-Refrigerated Warehouse,EMERSON POWER PRODUCTS,424 S CLOVERDALE ST,SEATTLE,WA,98108,GREATER DUWAMISH,47.52696432,-122.3293949,1/1/1980,50417,1,1,0,59,21,36.2000007629,38.2999992371,0.0007596644
585,NonResidential,Medical Office,NORTHWEST OUTPATIENT MEDICAL CENTER,10330 MERIDIAN AVE N,SEATTLE,WA,98133,NORTHWEST,47.70458235,-122.3325262,1/1/1961,133298,1,3,0,34,111.6999969482,286.3999938965,1177.4000244141,0.0088328409
586,NonResidential,Retail Store,J C PENNY CO BUILDING - NORTHGATE MALL,401 NE NORTHGATE WAY,SEATTLE,WA,98125,NORTH,47.70855501,-122.32376419,1/1/1965,173106,1,2,0,76,38,108.0999984741,551.799987793,0.0031876422
588,NonResidential,Mixed Use Property,1616 EASTLAKE BUILDING,1616 EASTLAKE AVE E,SEATTLE,WA,98102,LAKE UNION,47.6344398,-122.3246823,1/1/2002,168000,0,5,0,,256.200012207,605.0999755859,3254.8999023438,0.0193744042
589,NonResidential,Office,MERCER/YALE BLDG - 1260 MERCER,1260 MERCER ST,SEATTLE,WA,98109,LAKE UNION,47.62464437,-122.3312698,1/1/2000,103970,1,4,0,88,67.1999969482,211.1000061035,622,0.005982495
590,NonResidential,Non-Refrigerated Warehouse,4727 BUILDING,4727 DENVER AVE S,SEATTLE,WA,98134,GREATER DUWAMISH,47.56097562,-122.3349164,1/1/1969,104786,1,2,0,92,9.1999998093,23.8999996185,76.6999969482,0.000731968
592,NonResidential,Other,CENTURYLINK: SEATTLE 1ST AVE GARAGE,4755 1ST AVE S,SEATTLE,WA,98134,GREATER DUWAMISH,47.55795279,-122.3347992,1/1/2000,51427,1,1,0,,35.5,77.0999984741,132.1000061035,0.0025686897
594,NonResidential,Other,MCKINSTRY SHOP,210 S HUDSON ST,SEATTLE,WA,98134,GREATER DUWAMISH,47.5589184,-122.3315553,1/1/1973,110689,0,1,0,,20.1000003815,31.6000003815,138.1999969482,0.0012485432
595,NonResidential,Office,McKinstry 220 South Dawson,220 S DAWSON ST,SEATTLE,WA,98134,GREATER DUWAMISH,47.556121,-122.331634,1/1/1948,53620,1,1,0,88,37.2999992371,110.5999984741,171.8999938965,0.0032058932
596,NonResidential,Office,IRIDIO - (OLD WESTERN CARTAGE),5050 1ST AVE S,SEATTLE,WA,98134,GREATER DUWAMISH,47.55604648,-122.3332733,1/1/1938,50008,1,1,0,57,67.5,173.1000061035,266.8999938965,0.0053371459
597,NonResidential,Office,635 ELLIOTT - SOUTH BUILDING,635 ELLIOTT AVE W,SEATTLE,WA,98119,MAGNOLIA / QUEEN ANNE,47.62516702,-122.3671766,1/1/2009,194674,1,4,0,99,31.2000007629,98.0999984741,541.200012207,0.0027800323
598,NonResidential,Non-Refrigerated Warehouse,CASCADE DESIGNS INC (Baja),4225 2ND AVE S,SEATTLE,WA,98134,GREATER DUWAMISH,47.56408325,-122.3324282,1/1/1957,50832,1,1,0,52,52.5,87.4000015259,169.8000030518,0.0033404155
599,NonResidential,Refrigerated Warehouse,Uwajimaya (Seattle 5),4601 6TH AVE S,SEATTLE,WA,98108,GREATER DUWAMISH,47.56156057,-122.3275348,1/1/1971,63157,1,1,0,63,47.9000015259,149.6000061035,268.200012207,0.0042465604
600,NonResidential,Non-Refrigerated Warehouse,MERLINO FOODS,4100 4TH AVE S,SEATTLE,WA,98134,GREATER DUWAMISH,47.56597185,-122.3288821,1/1/1956,98480,1,1,0,67,28.3999996185,79.0999984741,231.6000061035,0.0023517466
601,NonResidential,Mixed Use Property,WALLINGFORD CENTER,1815 N 45TH ST,SEATTLE,WA,98103,LAKE UNION,47.66088623,-122.3356731,1/1/1904,53452,1,2,0,82,58.5999984741,160.3000030518,256.799987793,0.0048043102
602,NonResidential,Mixed Use Property,GILEAD SCIENCES BLDG. (ALEXANDRIA R.E.)  ECON. UNI,199 E BLAINE ST,SEATTLE,WA,98102,LAKE UNION,47.63453293,-122.32646179,1/1/2008,96967,1,3,0,,206.8999938965,450.700012207,1454,0.014994792
603,NonResidential,Other,ZYMOGENETICS,1201 EASTLAKE AVE E,SEATTLE,WA,98102,LAKE UNION,47.63103515,-122.3275228,1/1/1920,106003,1,3,0,,199.8999938965,483.200012207,1622.3000488281,0.0153042843
604,NonResidential,Office,AGC BUILDING & BANK,1200 WESTLAKE AVE N,SEATTLE,WA,98109,LAKE UNION,47.62998519,-122.3396373,1/1/1971,124721,1,11,0,56,111.9000015259,255.8000030518,1037,0.0083145581
605,NonResidential,Office,LAKE UNION BUILDING & YACHT HARBOR MARINA OFFICE BUILDING,1700 WESTLAKE AVE N,SEATTLE,WA,98109,LAKE UNION,47.6343814,-122.3396625,1/1/1970,93905,1,7,0,62,72.8000030518,228.5,607.9000244141,0.006473564
606,NonResidential,Non-Refrigerated Warehouse,NWCP BLDG U,520 S BRANDON ST,SEATTLE,WA,98108,GREATER DUWAMISH,47.55487662,-122.3276403,1/1/1974,93020,1,1,0,61,13.1999998093,41.4000015259,109.0999984741,0.001172866
607,NonResidential,Supermarket/Grocery Store,SAFEWAY 1965,9262 RAINIER AVE S,SEATTLE,WA,98118,SOUTHEAST,47.52100473,-122.2681394,1/1/2002,54434,1,1,0,33,246.8999938965,585.5999755859,1018.5999755859,0.0187125689
608,NonResidential,Office,MERRILL PLACE HAMBACH - SELLER BUILDING,411 1ST AVE S,SEATTLE,WA,98104,DOWNTOWN,47.59865952,-122.33460999,1/1/1913,193154,1,7,0,100,6.6999998093,17.6000003815,103.9000015259,0.0005379128
609,NonResidential,Office,HERITAGE BUILDING,111 S JACKSON ST,SEATTLE,WA,98104,DOWNTOWN,47.59894829,-122.3337932,1/1/1904,65600,1,5,0,95,30.3999996185,95,176.1999969482,0.0026859756
610,NonResidential,Office,F X MCRORY'S BUILDING,419 OCCIDENTAL AVE S,SEATTLE,WA,98104,DOWNTOWN,47.5985496,-122.3332623,1/1/1906,88945,1,7,0,59,77.1999969482,200.1000061035,546.299987793,0.0061419977
611,NonResidential,Office,WESTLAND BUILDING-DSHS,100 S KING ST,SEATTLE,WA,98104,DOWNTOWN,47.59854848,-122.3338013,1/1/1907,63871,1,6,0,84,42.9000015259,134.8000030518,244,0.0038202001
612,NonResidential,Office,GLOBE BUILDING,105 S MAIN ST,SEATTLE,WA,98104,DOWNTOWN,47.59970561,-122.3337848,1/1/1900,60686,1,4,0,88,33,78.6999969482,158.8999938965,0.0026183962
613,NonResidential,Office,GRAND CENTRAL BUILDING,216 1ST AVE S,SEATTLE,WA,98104,DOWNTOWN,47.60046292,-122.3337871,1/1/1900,70343,1,4,0,95,34,97,249.6999969482,0.003549749
614,NonResidential,Office,INTERURBAN BUILDING (OLD SMITH TOWER ANNEX BUILDING),157 YESLER WAY,SEATTLE,WA,98104,DOWNTOWN,47.60146407,-122.3324777,1/1/1900,60227,1,6,0,,55.5999984741,174.5,297.799987793,0.004944626
615,NonResidential,Office,OCCIDENTAL MALL,308 OCCIDENTAL AVE S,SEATTLE,WA,98104,DOWNTOWN,47.59961488,-122.3324883,1/1/1900,144402,1,4,0,79,50.7000007629,141.1000061035,610.5,0.0042277808
616,NonResidential,Office,COURT IN THE SQUARE (Goldsmith & Northcoast),401 2ND AVE S,SEATTLE,WA,98104,DOWNTOWN,47.59854889,-122.33197784,1/1/1907,160580,1,7,0,98,29.6000003815,70.8000030518,366.8999938965,0.0022848424
618,NonResidential,Office,PREFONTAINE BUILDING,110 PREFONTAINE PL S,SEATTLE,WA,98104,DOWNTOWN,47.60147726,-122.3293071,1/1/1909,66099,1,6,0,83,48.7999992371,153.3000030518,287.1000061035,0.0043434849
619,Nonresidential COS,Other,KING STREET STATION-BNRR/AMTRAK,301 S JACKSON ST,SEATTLE,WA,98104,DOWNTOWN,47.59842225,-122.3298934,1/1/1906,65490,1,3,0,,27.7999992371,87.4000015259,162.1999969482,0.002476714
620,NonResidential,Mixed Use Property,ROMAC INDUSTRIES WHSE,1064 4TH AVE S,SEATTLE,WA,98134,GREATER DUWAMISH,47.59264073,-122.3282811,1/1/1910,56700,1,3,0,38,40.7999992371,117.5,195.5,0.0034479718
621,NonResidential,Non-Refrigerated Warehouse,1021-1045 6th Ave. S.,1021 6TH AVE S,SEATTLE,WA,98134,GREATER DUWAMISH,47.59343565,-122.3266241,1/1/1922,81754,1,1,0,86,25.7000007629,49.9000015259,143.8000030518,0.0017589354
622,NonResidential,Other,PACIFIC GALLERIES ANTIQUE MALL,241 S LANDER ST,SEATTLE,WA,98134,GREATER DUWAMISH,47.57886723,-122.3313026,1/1/1953,76104,1,2,0,,44.2000007629,93.4000015259,240.1000061035,0.0031548934
623,NonResidential,Distribution Center,HULLIN TRANSFER BUILDING,270 S HANFORD ST,SEATTLE,WA,98134,GREATER DUWAMISH,47.57654546,-122.3305232,1/1/1962,98778,1,2,0,57,30.3999996185,73.9000015259,230.6000061035,0.002334528
624,NonResidential,Non-Refrigerated Warehouse,OCCIDENTAL WAREHOUSE,1900 OCCIDENTAL AVE S,SEATTLE,WA,98134,GREATER DUWAMISH,47.58438465,-122.3328054,1/1/1941,143207,1,2,0,,34.9000015259,75.5999984741,361.200012207,0.0025222232
625,NonResidential,Office,ZARRETT'S 0FFICE BUILDING - OLD OLYMPIC COLD STG,2200 1ST AVE S,SEATTLE,WA,98134,GREATER DUWAMISH,47.58360662,-122.3337054,1/1/1900,104869,1,4,0,85,38,119.3000030518,354.3999938965,0.0033794543
626,NonResidential,Non-Refrigerated Warehouse,UNITED WAREHOUSE CO,1750 OCCIDENTAL AVE S,SEATTLE,WA,98134,GREATER DUWAMISH,47.58726986,-122.3326579,1/1/1954,78814,1,1,0,87,7.9000000954,18.8999996185,47.2999992371,0.0006001472
627,NonResidential,Office,ROEBLING BLDG,900 1ST AVE S,SEATTLE,WA,98134,GREATER DUWAMISH,47.59481812,-122.33364868,1/1/1904,58470,1,4,0,,29.5,69.9000015259,130.6999969482,0.0022353343
628,NonResidential,Distribution Center,PALMER BLDG,1000 1ST AVE S,SEATTLE,WA,98134,GREATER DUWAMISH,47.59399214,-122.3337491,1/1/1910,61540,1,6,0,29,34.2000007629,107.3000030518,187.1000061035,0.0030402991
629,NonResidential,Distribution Center,1016 1ST AVE BLDG,1014 1ST AVE S,SEATTLE,WA,98134,GREATER DUWAMISH,47.59363891,-122.3336868,1/1/1907,56270,1,4,0,,18.5,58.0999984741,92.5999984741,0.0016456371
630,NonResidential,Office,THE REEDO BUILDING,542 1ST AVE S,SEATTLE,WA,98104,DOWNTOWN,47.59699249,-122.33368683,1/1/1904,53636,1,4,0,34,86.0999984741,234.1000061035,377.5,0.0070381833
632,NonResidential,Office,PROVIDENT BUILDING,568 1ST AVE S,SEATTLE,WA,98134,DOWNTOWN,47.59630585,-122.33368683,1/1/1909,65508,1,6,0,78,45.9000015259,144.3000030518,266.6000061035,0.004069732
633,NonResidential,Office,83 KING STREET,83 S KING ST,SEATTLE,WA,98104,DOWNTOWN,47.59767354,-122.3347397,1/1/1904,184322,1,7,0,75,56,175.8000030518,917.9000244141,0.0049798723
634,NonResidential,Office,505 FIRST AVENUE BUILDING,505 1ST AVE S,SEATTLE,WA,98104,DOWNTOWN,47.59802246,-122.3348465,1/1/2009,285914,1,7,0,33,99.4000015259,311.6000061035,2526.1999511719,0.0088355238
635,NonResidential,Office,1201 BUILDING,1201 1ST AVE S,SEATTLE,WA,98134,GREATER DUWAMISH,47.59161446,-122.3351876,1/1/1914,63000,1,2,0,49,97.6999969482,206.3999938965,160.8000030518,0.002552381
637,NonResidential,Mixed Use Property,STADIUM INNOVATION CENTER,1531 UTAH AVE S,SEATTLE,WA,98134,GREATER DUWAMISH,47.58927917,-122.33579254,1/1/2009,174226,1,6,0,,374.3999938965,1175,5801.2998046875,0.0332975549
638,NonResidential,Non-Refrigerated Warehouse,OUTDOOR RESEARCH,2203 1ST AVE S,SEATTLE,WA,98134,GREATER DUWAMISH,47.58374482,-122.334689,1/1/1926,144050,1,7,0,17,30.1000003815,73.5999984741,333.8999938965,0.0023179451
639,NonResidential,Office,GREEN ROOM,2245 1ST AVE S,SEATTLE,WA,98134,GREATER DUWAMISH,47.58242872,-122.3346455,1/1/1930,60384,1,3,0,19,82.6999969482,245.6000061035,538.0999755859,0.0089113006
640,NonResidential,Office,STARBUCKS (SODO) CENTER,2401 UTAH AVE S,SEATTLE,WA,98134,GREATER DUWAMISH,47.58133381,-122.3357675,1/1/1912,1502329,0,6,0,77,52.0999984741,151.3000030518,6646.8999023438,0.004424397
641,NonResidential,Retail Store,"HOME DEPOT W M#'S 7255, 7260 & 7265",2701 UTAH AVE S,SEATTLE,WA,98134,GREATER DUWAMISH,47.57834803,-122.336006,1/1/1993,107704,1,1,0,58,65,186,589.5999755859,0.0054742626
642,NonResidential,Non-Refrigerated Warehouse,BUFFALO SANITARY WIPERS CO,99 S SPOKANE ST,SEATTLE,WA,98134,GREATER DUWAMISH,47.57109832,-122.3355118,1/1/1926,99084,1,1,0,64,20,48.0999984741,151.1999969482,0.0015259779
647,NonResidential,Distribution Center,FERGUSON,4100 W MARGINAL WAY SW,SEATTLE,WA,98106,SHARED: GREATER DUWAMISH & DELRIDGE NEIGHBORHOODS,47.56679281,-122.3523106,1/1/1953,72719,1,1,0,31,33.5,91.5999984741,199.6999969482,0.0027461873
649,NonResidential,Office,IMMIGRATION SERVICE BUILDING,815 AIRPORT WAY S,SEATTLE,WA,98134,GREATER DUWAMISH,47.59511688,-122.3270857,1/1/1930,76624,0,4,0,91,34.7000007629,103,228.6999969482,0.0029847045
650,NonResidential,Office,45TH STREET PLAZA - OFFICE BUILDING AND PARKING GA,1100 NE 45TH ST,SEATTLE,WA,98105,NORTHEAST,47.6615192,-122.3162379,1/1/2001,57005,1,6,0,3,134.3000030518,421.6000061035,681,0.0119463205
651,NonResidential,Medical Office,BIOMED FAIRVIEW RESEARCH CENTER,530 FAIRVIEW AVE N,SEATTLE,WA,98109,LAKE UNION,47.62395105,-122.333912,1/1/2008,94746,1,5,0,24,139.8999938965,345.5,1026.8000488281,0.0108373973
652,NonResidential,Office,WEST SEATTLE CORPORATE CENTER,4025 DELRIDGE WAY SW,SEATTLE,WA,98106,DELRIDGE NEIGHBORHOODS,47.5679286,-122.3641365,1/1/1991,116251,1,5,0,45,66.8000030518,209.6999969482,690.5,0.0059397339
654,NonResidential,Retail Store,MULTI-TENANT WAREHOUSE,4101 AIRPORT WAY S,SEATTLE,WA,98108,GREATER DUWAMISH,47.5666089,-122.3234388,1/1/1973,56576,1,1,0,70,38.5999984741,84.5999984741,158.8000030518,0.0028068439
655,Multifamily MR (5-9),Multifamily Housing,TASHIRO-KAPLAN BUILDING CONDO/MIXED USE,101 PREFONTAINE PL S,SEATTLE,WA,98104,DOWNTOWN,47.60116757,-122.3298228,1/1/2002,117950,1,6,95,65,25.3999996185,78.5999984741,264.1000061035,0.0022390844
656,NonResidential,Medical Office,1221 MADISON STREET (FORMER ARNOLD MED. PAVILLON),1221 MADISON ST,SEATTLE,WA,98104,EAST,47.60967963,-122.3231052,1/1/2004,200184,1,0,0,59,94.5999984741,231.6000061035,1532.3000488281,0.0076544581
